var k ={"type":"FeatureCollection","name":"tiba","features":[
{"type":"Feature","geometry":{"type":"Point","coordinates":[140.1143030000,35.6079090000]},"properties":{"Name":"新宿小学校","Jusho":"千葉県千葉市中央区新宿2-15-1","kouzui":"○","gake":"○","takashio":"○","jishin":"○","tsunami":"○","kaji":"×","naisui":"○","kazan":"×","指定避難所との重複":"○","備考":"×"}},
{"type":"Feature","geometry":{"type":"Point","coordinates":[140.1281190000,35.6093200000]},"properties":{"Name":"本町小学校","Jusho":"千葉県千葉市中央区本町2-6-23","kouzui":"○","gake":"○","takashio":"○","jishin":"○","tsunami":"○","kaji":"×","naisui":"○","kazan":"×","指定避難所との重複":"○","備考":"×"}},
{"type":"Feature","geometry":{"type":"Point","coordinates":[140.1218040000,35.5973170000]},"properties":{"Name":"寒川小学校","Jusho":"千葉県千葉市中央区寒川町1-205","kouzui":"○","gake":"○","takashio":"○","jishin":"○","tsunami":"○","kaji":"×","naisui":"○","kazan":"×","指定避難所との重複":"○","備考":"×"}},
{"type":"Feature","geometry":{"type":"Point","coordinates":[140.1076160000,35.6124380000]},"properties":{"Name":"登戸小学校","Jusho":"千葉県千葉市中央区登戸2-11-1","kouzui":"○","gake":"○","takashio":"○","jishin":"○","tsunami":"○","kaji":"×","naisui":"○","kazan":"×","指定避難所との重複":"○","備考":"×"}},
{"type":"Feature","geometry":{"type":"Point","coordinates":[140.1257960000,35.6155120000]},"properties":{"Name":"院内小学校","Jusho":"千葉県千葉市中央区祐光1-25-3","kouzui":"○","gake":"○","takashio":"○","jishin":"○","tsunami":"○","kaji":"×","naisui":"○","kazan":"×","指定避難所との重複":"○","備考":"×"}},
{"type":"Feature","geometry":{"type":"Point","coordinates":[140.1312630000,35.5782110000]},"properties":{"Name":"蘇我小学校","Jusho":"千葉県千葉市中央区今井3-15-32","kouzui":"○","gake":"○","takashio":"○","jishin":"○","tsunami":"○","kaji":"×","naisui":"○","kazan":"×","指定避難所との重複":"○","備考":"×"}},
{"type":"Feature","geometry":{"type":"Point","coordinates":[140.1448350000,35.6125070000]},"properties":{"Name":"都小学校","Jusho":"千葉県千葉市中央区都町1129","kouzui":"○","gake":"○","takashio":"○","jishin":"○","tsunami":"○","kaji":"×","naisui":"○","kazan":"×","指定避難所との重複":"○","備考":"×"}},
{"type":"Feature","geometry":{"type":"Point","coordinates":[140.1444760000,35.5806230000]},"properties":{"Name":"大森小学校","Jusho":"千葉県千葉市中央区大森町268","kouzui":"○","gake":"○","takashio":"○","jishin":"○","tsunami":"○","kaji":"×","naisui":"○","kazan":"×","指定避難所との重複":"○","備考":"×"}},
{"type":"Feature","geometry":{"type":"Point","coordinates":[140.1405080000,35.5594790000]},"properties":{"Name":"生浜小学校","Jusho":"千葉県千葉市中央区浜野町1335","kouzui":"○","gake":"○","takashio":"○","jishin":"○","tsunami":"○","kaji":"×","naisui":"○","kazan":"×","指定避難所との重複":"○","備考":"×"}},
{"type":"Feature","geometry":{"type":"Point","coordinates":[140.1337120000,35.6098700000]},"properties":{"Name":"鶴沢小学校","Jusho":"千葉県千葉市中央区鶴沢町21-1","kouzui":"○","gake":"○","takashio":"○","jishin":"○","tsunami":"○","kaji":"×","naisui":"○","kazan":"×","指定避難所との重複":"○","備考":"×"}},
{"type":"Feature","geometry":{"type":"Point","coordinates":[140.1554050000,35.5864380000]},"properties":{"Name":"松ヶ丘小学校","Jusho":"千葉県千葉市中央区松ヶ丘町580","kouzui":"○","gake":"○","takashio":"○","jishin":"○","tsunami":"○","kaji":"×","naisui":"○","kazan":"×","指定避難所との重複":"○","備考":"×"}},
{"type":"Feature","geometry":{"type":"Point","coordinates":[140.1365860000,35.5836630000]},"properties":{"Name":"宮崎小学校","Jusho":"千葉県千葉市中央区宮崎2-3-13","kouzui":"○","gake":"○","takashio":"○","jishin":"○","tsunami":"○","kaji":"×","naisui":"○","kazan":"×","指定避難所との重複":"○","備考":"×"}},
{"type":"Feature","geometry":{"type":"Point","coordinates":[140.1679670000,35.5847820000]},"properties":{"Name":"川戸小学校","Jusho":"千葉県千葉市中央区川戸町450","kouzui":"○","gake":"○","takashio":"○","jishin":"○","tsunami":"○","kaji":"×","naisui":"○","kazan":"×","指定避難所との重複":"○","備考":"×"}},
{"type":"Feature","geometry":{"type":"Point","coordinates":[140.1466880000,35.5968060000]},"properties":{"Name":"星久喜小学校","Jusho":"千葉県千葉市中央区星久喜町1060","kouzui":"○","gake":"○","takashio":"○","jishin":"○","tsunami":"○","kaji":"×","naisui":"○","kazan":"×","指定避難所との重複":"○","備考":"×"}},
{"type":"Feature","geometry":{"type":"Point","coordinates":[140.1126190000,35.6164910000]},"properties":{"Name":"弁天小学校","Jusho":"千葉県千葉市中央区弁天1-21-2","kouzui":"○","gake":"○","takashio":"○","jishin":"○","tsunami":"○","kaji":"×","naisui":"○","kazan":"×","指定避難所との重複":"○","備考":"×"}},
{"type":"Feature","geometry":{"type":"Point","coordinates":[140.1312890000,35.5589630000]},"properties":{"Name":"生浜西小学校","Jusho":"千葉県千葉市中央区塩田町316-1","kouzui":"○","gake":"○","takashio":"○","jishin":"○","tsunami":"○","kaji":"×","naisui":"○","kazan":"×","指定避難所との重複":"○","備考":"×"}},
{"type":"Feature","geometry":{"type":"Point","coordinates":[140.1586690000,35.5925600000]},"properties":{"Name":"仁戸名小学校","Jusho":"千葉県千葉市中央区仁戸名町380","kouzui":"○","gake":"○","takashio":"○","jishin":"○","tsunami":"○","kaji":"×","naisui":"○","kazan":"×","指定避難所との重複":"○","備考":"×"}},
{"type":"Feature","geometry":{"type":"Point","coordinates":[140.1490720000,35.5731570000]},"properties":{"Name":"大巌寺小学校","Jusho":"千葉県千葉市中央区大巌寺町375","kouzui":"○","gake":"○","takashio":"○","jishin":"○","tsunami":"○","kaji":"×","naisui":"○","kazan":"×","指定避難所との重複":"○","備考":"×"}},
{"type":"Feature","geometry":{"type":"Point","coordinates":[140.1479350000,35.5598760000]},"properties":{"Name":"生浜東小学校","Jusho":"千葉県千葉市中央区生実町1928","kouzui":"○","gake":"○","takashio":"○","jishin":"○","tsunami":"○","kaji":"×","naisui":"○","kazan":"×","指定避難所との重複":"○","備考":"×"}},
{"type":"Feature","geometry":{"type":"Point","coordinates":[140.1266150000,35.5967860000]},"properties":{"Name":"末広中学校","Jusho":"千葉県千葉市中央区末広2-10-1","kouzui":"○","gake":"○","takashio":"○","jishin":"○","tsunami":"○","kaji":"×","naisui":"○","kazan":"×","指定避難所との重複":"○","備考":"×"}},
{"type":"Feature","geometry":{"type":"Point","coordinates":[140.1310330000,35.6008710000]},"properties":{"Name":"葛城中学校","Jusho":"千葉県千葉市中央区葛城2-9-1","kouzui":"○","gake":"○","takashio":"○","jishin":"○","tsunami":"○","kaji":"×","naisui":"○","kazan":"×","指定避難所との重複":"○","備考":"×"}},
{"type":"Feature","geometry":{"type":"Point","coordinates":[140.1207660000,35.6224090000]},"properties":{"Name":"椿森中学校","Jusho":"千葉県千葉市中央区椿森4-1-1","kouzui":"○","gake":"○","takashio":"○","jishin":"○","tsunami":"○","kaji":"×","naisui":"○","kazan":"×","指定避難所との重複":"○","備考":"×"}},
{"type":"Feature","geometry":{"type":"Point","coordinates":[140.1092070000,35.6044040000]},"properties":{"Name":"新宿中学校","Jusho":"千葉県千葉市中央区問屋町1-73","kouzui":"○","gake":"○","takashio":"○","jishin":"○","tsunami":"○","kaji":"×","naisui":"○","kazan":"×","指定避難所との重複":"○","備考":"×"}},
{"type":"Feature","geometry":{"type":"Point","coordinates":[140.1380180000,35.5772680000]},"properties":{"Name":"蘇我中学校","Jusho":"千葉県千葉市中央区白旗1-5-3","kouzui":"○","gake":"○","takashio":"○","jishin":"○","tsunami":"○","kaji":"×","naisui":"○","kazan":"×","指定避難所との重複":"○","備考":"×"}},
{"type":"Feature","geometry":{"type":"Point","coordinates":[140.1441120000,35.5572090000]},"properties":{"Name":"生浜中学校","Jusho":"千葉県千葉市中央区南生実町258","kouzui":"○","gake":"○","takashio":"○","jishin":"○","tsunami":"○","kaji":"×","naisui":"○","kazan":"×","指定避難所との重複":"○","備考":"×"}},
{"type":"Feature","geometry":{"type":"Point","coordinates":[140.1524690000,35.5877210000]},"properties":{"Name":"松ヶ丘中学校","Jusho":"千葉県千葉市中央区松ヶ丘町440","kouzui":"○","gake":"○","takashio":"○","jishin":"○","tsunami":"○","kaji":"×","naisui":"○","kazan":"×","指定避難所との重複":"○","備考":"×"}},
{"type":"Feature","geometry":{"type":"Point","coordinates":[140.1678730000,35.5840030000]},"properties":{"Name":"川戸中学校","Jusho":"千葉県千葉市中央区川戸町443","kouzui":"○","gake":"○","takashio":"○","jishin":"○","tsunami":"○","kaji":"×","naisui":"○","kazan":"×","指定避難所との重複":"○","備考":"×"}},
{"type":"Feature","geometry":{"type":"Point","coordinates":[140.1520510000,35.6008450000]},"properties":{"Name":"星久喜中学校","Jusho":"千葉県千葉市中央区星久喜町823","kouzui":"○","gake":"○","takashio":"○","jishin":"○","tsunami":"○","kaji":"×","naisui":"○","kazan":"×","指定避難所との重複":"○","備考":"×"}},
{"type":"Feature","geometry":{"type":"Point","coordinates":[140.1296110000,35.5606830000]},"properties":{"Name":"県立生浜高等学校","Jusho":"千葉県千葉市中央区塩田町372","kouzui":"○","gake":"○","takashio":"○","jishin":"○","tsunami":"○","kaji":"×","naisui":"○","kazan":"×","指定避難所との重複":"○","備考":"×"}},
{"type":"Feature","geometry":{"type":"Point","coordinates":[140.1283960000,35.5999970000]},"properties":{"Name":"県立千葉高等学校","Jusho":"千葉県千葉市中央区葛城1-5-2","kouzui":"○","gake":"○","takashio":"○","jishin":"○","tsunami":"○","kaji":"×","naisui":"○","kazan":"×","指定避難所との重複":"○","備考":"×"}},
{"type":"Feature","geometry":{"type":"Point","coordinates":[140.1079250000,35.6211030000]},"properties":{"Name":"県立千葉商業高等学校","Jusho":"千葉県千葉市中央区松波2-22-48","kouzui":"○","gake":"○","takashio":"○","jishin":"○","tsunami":"○","kaji":"×","naisui":"○","kazan":"×","指定避難所との重複":"○","備考":"×"}},
{"type":"Feature","geometry":{"type":"Point","coordinates":[140.1411410000,35.5715400000]},"properties":{"Name":"県立千葉工業高等学校","Jusho":"千葉県千葉市中央区今井町1478","kouzui":"○","gake":"○","takashio":"○","jishin":"○","tsunami":"○","kaji":"×","naisui":"○","kazan":"×","指定避難所との重複":"○","備考":"×"}},
{"type":"Feature","geometry":{"type":"Point","coordinates":[140.1635890000,35.5768860000]},"properties":{"Name":"県立千葉南高等学校","Jusho":"千葉県千葉市中央区花輪町45-3","kouzui":"○","gake":"○","takashio":"○","jishin":"○","tsunami":"○","kaji":"×","naisui":"○","kazan":"×","指定避難所との重複":"○","備考":"×"}},
{"type":"Feature","geometry":{"type":"Point","coordinates":[140.1545810000,35.5606370000]},"properties":{"Name":"千葉明徳学園","Jusho":"千葉県千葉市中央区南生実町1412","kouzui":"○","gake":"○","takashio":"○","jishin":"○","tsunami":"○","kaji":"○","naisui":"○","kazan":"×","指定避難所との重複":"○","備考":"×"}},
{"type":"Feature","geometry":{"type":"Point","coordinates":[140.1518610000,35.5881680000]},"properties":{"Name":"松ヶ丘公民館","Jusho":"千葉県千葉市中央区松ヶ丘町257-2","kouzui":"○","gake":"○","takashio":"○","jishin":"○","tsunami":"○","kaji":"×","naisui":"○","kazan":"×","指定避難所との重複":"○","備考":"×"}},
{"type":"Feature","geometry":{"type":"Point","coordinates":[140.1417700000,35.5596370000]},"properties":{"Name":"生浜公民館","Jusho":"千葉県千葉市中央区生実町67-1","kouzui":"○","gake":"○","takashio":"○","jishin":"○","tsunami":"○","kaji":"×","naisui":"○","kazan":"×","指定避難所との重複":"○","備考":"×"}},
{"type":"Feature","geometry":{"type":"Point","coordinates":[140.1137760000,35.6068580000]},"properties":{"Name":"新宿公民館","Jusho":"千葉県千葉市中央区新宿2-16-14","kouzui":"○","gake":"○","takashio":"○","jishin":"○","tsunami":"○","kaji":"×","naisui":"○","kazan":"×","指定避難所との重複":"○","備考":"×"}},
{"type":"Feature","geometry":{"type":"Point","coordinates":[140.1368290000,35.5806160000]},"properties":{"Name":"宮崎公民館","Jusho":"千葉県千葉市中央区宮崎2-5-22","kouzui":"○","gake":"○","takashio":"○","jishin":"○","tsunami":"○","kaji":"×","naisui":"○","kazan":"×","指定避難所との重複":"○","備考":"×"}},
{"type":"Feature","geometry":{"type":"Point","coordinates":[140.1308970000,35.5996400000]},"properties":{"Name":"葛城公民館","Jusho":"千葉県千葉市中央区葛城2-9-2","kouzui":"○","gake":"○","takashio":"○","jishin":"○","tsunami":"○","kaji":"×","naisui":"○","kazan":"×","指定避難所との重複":"○","備考":"×"}},
{"type":"Feature","geometry":{"type":"Point","coordinates":[140.1252340000,35.5939780000]},"properties":{"Name":"末広公民館","Jusho":"千葉県千葉市中央区末広3-2-2","kouzui":"○","gake":"○","takashio":"×","jishin":"○","tsunami":"○","kaji":"×","naisui":"○","kazan":"×","指定避難所との重複":"○","備考":"×"}},
{"type":"Feature","geometry":{"type":"Point","coordinates":[140.1238480000,35.6201260000]},"properties":{"Name":"椿森公民館","Jusho":"千葉県千葉市中央区椿森6-1-11","kouzui":"○","gake":"○","takashio":"○","jishin":"○","tsunami":"○","kaji":"×","naisui":"○","kazan":"×","指定避難所との重複":"○","備考":"×"}},
{"type":"Feature","geometry":{"type":"Point","coordinates":[140.1668830000,35.5819420000]},"properties":{"Name":"川戸公民館","Jusho":"千葉県千葉市中央区川戸町403-1","kouzui":"○","gake":"○","takashio":"○","jishin":"○","tsunami":"○","kaji":"×","naisui":"○","kazan":"×","指定避難所との重複":"○","備考":"×"}},
{"type":"Feature","geometry":{"type":"Point","coordinates":[140.1511770000,35.5977010000]},"properties":{"Name":"星久喜公民館","Jusho":"千葉県千葉市中央区星久喜町615-7","kouzui":"○","gake":"○","takashio":"○","jishin":"○","tsunami":"○","kaji":"×","naisui":"○","kazan":"×","指定避難所との重複":"○","備考":"×"}},
{"type":"Feature","geometry":{"type":"Point","coordinates":[140.1291810000,35.5837460000]},"properties":{"Name":"蘇我コミュニティセンター","Jusho":"千葉県千葉市中央区今井1-14-43 ","kouzui":"○","gake":"○","takashio":"○","jishin":"○","tsunami":"○","kaji":"×","naisui":"○","kazan":"×","指定避難所との重複":"○","備考":"×"}},
{"type":"Feature","geometry":{"type":"Point","coordinates":[140.1385470000,35.5790560000]},"properties":{"Name":"南部青少年センター","Jusho":"千葉県千葉市中央区白旗1-3-16","kouzui":"○","gake":"○","takashio":"○","jishin":"○","tsunami":"○","kaji":"×","naisui":"○","kazan":"×","指定避難所との重複":"○","備考":"×"}},
{"type":"Feature","geometry":{"type":"Point","coordinates":[140.1117970000,35.6029020000]},"properties":{"Name":"千葉ポートアリーナ","Jusho":"千葉県千葉市中央区問屋町1-20","kouzui":"○","gake":"○","takashio":"×","jishin":"○","tsunami":"○","kaji":"×","naisui":"○","kazan":"×","指定避難所との重複":"○","備考":"×"}},
{"type":"Feature","geometry":{"type":"Point","coordinates":[140.1346770000,35.5946500000]},"properties":{"Name":"ハーモニープラザ","Jusho":"千葉県千葉市中央区千葉寺町1208-2","kouzui":"○","gake":"○","takashio":"○","jishin":"○","tsunami":"○","kaji":"×","naisui":"○","kazan":"×","指定避難所との重複":"○","備考":"×"}},
{"type":"Feature","geometry":{"type":"Point","coordinates":[140.1202770000,35.6154250000]},"properties":{"Name":"市民会館","Jusho":"千葉県千葉市中央区要町1-1","kouzui":"○","gake":"○","takashio":"○","jishin":"○","tsunami":"○","kaji":"×","naisui":"○","kazan":"×","指定避難所との重複":"○","備考":"×"}},
{"type":"Feature","geometry":{"type":"Point","coordinates":[140.1228870000,35.6073960000]},"properties":{"Name":"子ども交流館","Jusho":"千葉県千葉市中央区中央4-5-1","kouzui":"○","gake":"○","takashio":"○","jishin":"○","tsunami":"○","kaji":"×","naisui":"○","kazan":"×","指定避難所との重複":"○","備考":"×"}},
{"type":"Feature","geometry":{"type":"Point","coordinates":[140.1229980000,35.6074500000]},"properties":{"Name":"ビジネス支援センター","Jusho":"千葉県千葉市中央区中央4-5-1","kouzui":"○","gake":"○","takashio":"○","jishin":"○","tsunami":"○","kaji":"×","naisui":"○","kazan":"×","指定避難所との重複":"○","備考":"×"}},
{"type":"Feature","geometry":{"type":"Point","coordinates":[140.1228990000,35.6074050000]},"properties":{"Name":"科学館","Jusho":"千葉県千葉市中央区中央4-5-1","kouzui":"○","gake":"○","takashio":"○","jishin":"○","tsunami":"○","kaji":"×","naisui":"○","kazan":"×","指定避難所との重複":"○","備考":"×"}},
{"type":"Feature","geometry":{"type":"Point","coordinates":[140.1228930000,35.6074050000]},"properties":{"Name":"子育て支援館","Jusho":"千葉県千葉市中央区中央4-5-1","kouzui":"○","gake":"○","takashio":"○","jishin":"○","tsunami":"○","kaji":"×","naisui":"○","kazan":"×","指定避難所との重複":"○","備考":"×"}},
{"type":"Feature","geometry":{"type":"Point","coordinates":[140.1388260000,35.5978960000]},"properties":{"Name":"青葉の森公園芸術文化ホール","Jusho":"千葉県千葉市中央区青葉町977-1","kouzui":"○","gake":"○","takashio":"○","jishin":"○","tsunami":"○","kaji":"×","naisui":"○","kazan":"×","指定避難所との重複":"○","備考":"×"}},
{"type":"Feature","geometry":{"type":"Point","coordinates":[140.1515770000,35.6018120000]},"properties":{"Name":"都市緑化植物園","Jusho":"千葉県千葉市中央区星久喜町278","kouzui":"○","gake":"○","takashio":"○","jishin":"○","tsunami":"○","kaji":"×","naisui":"○","kazan":"×","指定避難所との重複":"○","備考":"×"}},
{"type":"Feature","geometry":{"type":"Point","coordinates":[140.1225850000,35.6038490000]},"properties":{"Name":"羽衣公園","Jusho":"千葉県千葉市中央区市場町1-1","kouzui":"○","gake":"○","takashio":"×","jishin":"○","tsunami":"○","kaji":"×","naisui":"○","kazan":"×","指定避難所との重複":"×","備考":"×"}},
{"type":"Feature","geometry":{"type":"Point","coordinates":[140.1351990000,35.5832980000]},"properties":{"Name":"菰池公園","Jusho":"千葉県千葉市中央区宮崎2-4","kouzui":"○","gake":"○","takashio":"○","jishin":"○","tsunami":"○","kaji":"×","naisui":"○","kazan":"×","指定避難所との重複":"×","備考":"×"}},
{"type":"Feature","geometry":{"type":"Point","coordinates":[140.1348630000,35.5707200000]},"properties":{"Name":"そが野ふれあい公園","Jusho":"千葉県千葉市中央区蘇我2","kouzui":"○","gake":"○","takashio":"○","jishin":"○","tsunami":"○","kaji":"×","naisui":"○","kazan":"×","指定避難所との重複":"×","備考":"×"}},
{"type":"Feature","geometry":{"type":"Point","coordinates":[140.1387990000,35.6113800000]},"properties":{"Name":"都公園","Jusho":"千葉県千葉市中央区都町2-14","kouzui":"○","gake":"○","takashio":"×","jishin":"○","tsunami":"○","kaji":"×","naisui":"○","kazan":"×","指定避難所との重複":"×","備考":"×"}},
{"type":"Feature","geometry":{"type":"Point","coordinates":[140.1137230000,35.6002860000]},"properties":{"Name":"千葉職業能力開発短期大学校","Jusho":"千葉県千葉市中央区問屋町2-25","kouzui":"×","gake":"×","takashio":"×","jishin":"×","tsunami":"○","kaji":"×","naisui":"×","kazan":"×","指定避難所との重複":"×","備考":"×"}},
{"type":"Feature","geometry":{"type":"Point","coordinates":[140.1110670000,35.6029250000]},"properties":{"Name":"千葉ポートスクエア","Jusho":"千葉県千葉市中央区問屋町1-35","kouzui":"×","gake":"×","takashio":"×","jishin":"×","tsunami":"○","kaji":"×","naisui":"×","kazan":"×","指定避難所との重複":"×","備考":"×"}},
{"type":"Feature","geometry":{"type":"Point","coordinates":[140.1221390000,35.5774750000]},"properties":{"Name":"フクダ電子アリーナ","Jusho":"千葉県千葉市中央区川崎町1-20","kouzui":"×","gake":"×","takashio":"×","jishin":"×","tsunami":"○","kaji":"×","naisui":"×","kazan":"×","指定避難所との重複":"×","備考":"×"}},
{"type":"Feature","geometry":{"type":"Point","coordinates":[140.1163030000,35.6205880000]},"properties":{"Name":"千葉公園（※建物を含まない）","Jusho":"千葉県千葉市中央区弁天3-1他","kouzui":"○","gake":"○","takashio":"○","jishin":"○","tsunami":"○","kaji":"○","naisui":"○","kazan":"×","指定避難所との重複":"×","備考":"×"}},
{"type":"Feature","geometry":{"type":"Point","coordinates":[140.1046940000,35.6065100000]},"properties":{"Name":"みなと公園","Jusho":"千葉県千葉市中央区千葉港6","kouzui":"○","gake":"○","takashio":"×","jishin":"○","tsunami":"○","kaji":"○","naisui":"○","kazan":"×","指定避難所との重複":"×","備考":"×"}},
{"type":"Feature","geometry":{"type":"Point","coordinates":[140.1401420000,35.5968790000]},"properties":{"Name":"青葉の森公園","Jusho":"千葉県千葉市中央区青葉町654","kouzui":"○","gake":"○","takashio":"○","jishin":"○","tsunami":"○","kaji":"○","naisui":"○","kazan":"×","指定避難所との重複":"×","備考":"×"}},
{"type":"Feature","geometry":{"type":"Point","coordinates":[140.1323320000,35.5852150000]},"properties":{"Name":"ＪＦＥ千葉体育館一帯（※建物を含まない）","Jusho":"千葉県千葉市中央区南町1-3-1","kouzui":"○","gake":"○","takashio":"×","jishin":"○","tsunami":"○","kaji":"○","naisui":"○","kazan":"×","指定避難所との重複":"×","備考":"×"}},
{"type":"Feature","geometry":{"type":"Point","coordinates":[140.1626190000,35.5791770000]},"properties":{"Name":"ニューサンピア千葉一帯（※建物を含まない）","Jusho":"千葉県千葉市中央区仁戸名町705他","kouzui":"○","gake":"○","takashio":"○","jishin":"○","tsunami":"○","kaji":"○","naisui":"○","kazan":"×","指定避難所との重複":"×","備考":"×"}},
{"type":"Feature","geometry":{"type":"Point","coordinates":[140.1411410000,35.5715400000]},"properties":{"Name":"県立千葉工業高等学校一帯","Jusho":"千葉県千葉市中央区今井町1478他","kouzui":"○","gake":"○","takashio":"○","jishin":"○","tsunami":"○","kaji":"○","naisui":"○","kazan":"×","指定避難所との重複":"×","備考":"×"}},
{"type":"Feature","geometry":{"type":"Point","coordinates":[140.0686130000,35.6488810000]},"properties":{"Name":"検見川小学校","Jusho":"千葉県千葉市花見川区検見川町3-322-23","kouzui":"○","gake":"○","takashio":"○","jishin":"○","tsunami":"○","kaji":"×","naisui":"○","kazan":"×","指定避難所との重複":"○","備考":"×"}},
{"type":"Feature","geometry":{"type":"Point","coordinates":[140.0786770000,35.6654230000]},"properties":{"Name":"畑小学校","Jusho":"千葉県千葉市花見川区畑町1385-1","kouzui":"○","gake":"○","takashio":"○","jishin":"○","tsunami":"○","kaji":"×","naisui":"○","kazan":"×","指定避難所との重複":"○","備考":"×"}},
{"type":"Feature","geometry":{"type":"Point","coordinates":[140.0738870000,35.6563370000]},"properties":{"Name":"花園小学校","Jusho":"千葉県千葉市花見川区花園4-1-2","kouzui":"○","gake":"○","takashio":"○","jishin":"○","tsunami":"○","kaji":"×","naisui":"○","kazan":"×","指定避難所との重複":"○","備考":"×"}},
{"type":"Feature","geometry":{"type":"Point","coordinates":[140.1081680000,35.6729700000]},"properties":{"Name":"犢橋小学校","Jusho":"千葉県千葉市花見川区犢橋町774","kouzui":"○","gake":"○","takashio":"○","jishin":"○","tsunami":"○","kaji":"×","naisui":"○","kazan":"×","指定避難所との重複":"○","備考":"×"}},
{"type":"Feature","geometry":{"type":"Point","coordinates":[140.1203590000,35.6961650000]},"properties":{"Name":"横戸小学校","Jusho":"千葉県千葉市花見川区横戸町1005","kouzui":"○","gake":"○","takashio":"○","jishin":"○","tsunami":"○","kaji":"×","naisui":"○","kazan":"×","指定避難所との重複":"○","備考":"×"}},
{"type":"Feature","geometry":{"type":"Point","coordinates":[140.0537390000,35.6618840000]},"properties":{"Name":"幕張小学校","Jusho":"千葉県千葉市花見川区幕張町4-781","kouzui":"○","gake":"○","takashio":"○","jishin":"○","tsunami":"○","kaji":"×","naisui":"○","kazan":"×","指定避難所との重複":"○","備考":"×"}},
{"type":"Feature","geometry":{"type":"Point","coordinates":[140.0737430000,35.6842140000]},"properties":{"Name":"長作小学校","Jusho":"千葉県千葉市花見川区長作町1273","kouzui":"○","gake":"○","takashio":"○","jishin":"○","tsunami":"○","kaji":"×","naisui":"○","kazan":"×","指定避難所との重複":"○","備考":"×"}},
{"type":"Feature","geometry":{"type":"Point","coordinates":[140.0580710000,35.6653660000]},"properties":{"Name":"幕張東小学校","Jusho":"千葉県千葉市花見川区幕張町4-681","kouzui":"○","gake":"○","takashio":"○","jishin":"○","tsunami":"○","kaji":"×","naisui":"○","kazan":"×","指定避難所との重複":"○","備考":"×"}},
{"type":"Feature","geometry":{"type":"Point","coordinates":[140.1225740000,35.6878790000]},"properties":{"Name":"こてはし台小学校","Jusho":"千葉県千葉市花見川区こてはし台2-28-1","kouzui":"○","gake":"○","takashio":"○","jishin":"○","tsunami":"○","kaji":"×","naisui":"○","kazan":"×","指定避難所との重複":"○","備考":"×"}},
{"type":"Feature","geometry":{"type":"Point","coordinates":[140.0888440000,35.6852770000]},"properties":{"Name":"花見川第三小学校","Jusho":"千葉県千葉市花見川区花見川1-1","kouzui":"○","gake":"○","takashio":"○","jishin":"○","tsunami":"○","kaji":"×","naisui":"○","kazan":"×","指定避難所との重複":"○","備考":"×"}},
{"type":"Feature","geometry":{"type":"Point","coordinates":[140.0862810000,35.6509720000]},"properties":{"Name":"西小中台小学校","Jusho":"千葉県千葉市花見川区西小中台3-1","kouzui":"○","gake":"○","takashio":"○","jishin":"○","tsunami":"○","kaji":"×","naisui":"○","kazan":"×","指定避難所との重複":"○","備考":"×"}},
{"type":"Feature","geometry":{"type":"Point","coordinates":[140.0991850000,35.6639230000]},"properties":{"Name":"さつきが丘東小学校","Jusho":"千葉県千葉市花見川区さつきが丘1-7","kouzui":"○","gake":"○","takashio":"○","jishin":"○","tsunami":"○","kaji":"×","naisui":"○","kazan":"×","指定避難所との重複":"○","備考":"×"}},
{"type":"Feature","geometry":{"type":"Point","coordinates":[140.0911890000,35.6675130000]},"properties":{"Name":"さつきが丘西小学校","Jusho":"千葉県千葉市花見川区さつきが丘2-14","kouzui":"○","gake":"○","takashio":"○","jishin":"○","tsunami":"○","kaji":"×","naisui":"○","kazan":"×","指定避難所との重複":"○","備考":"×"}},
{"type":"Feature","geometry":{"type":"Point","coordinates":[140.0844710000,35.6877340000]},"properties":{"Name":"作新小学校","Jusho":"千葉県千葉市花見川区作新台7-2-1","kouzui":"○","gake":"○","takashio":"○","jishin":"○","tsunami":"○","kaji":"×","naisui":"○","kazan":"×","指定避難所との重複":"○","備考":"×"}},
{"type":"Feature","geometry":{"type":"Point","coordinates":[140.1063650000,35.7087850000]},"properties":{"Name":"柏井小学校","Jusho":"千葉県千葉市花見川区柏井4-48-1","kouzui":"○","gake":"○","takashio":"○","jishin":"○","tsunami":"○","kaji":"×","naisui":"○","kazan":"×","指定避難所との重複":"○","備考":"×"}},
{"type":"Feature","geometry":{"type":"Point","coordinates":[140.0471830000,35.6570640000]},"properties":{"Name":"幕張南小学校","Jusho":"千葉県千葉市花見川区幕張町3-7718","kouzui":"○","gake":"○","takashio":"○","jishin":"○","tsunami":"○","kaji":"×","naisui":"○","kazan":"×","指定避難所との重複":"○","備考":"×"}},
{"type":"Feature","geometry":{"type":"Point","coordinates":[140.0504550000,35.6681210000]},"properties":{"Name":"上の台小学校","Jusho":"千葉県千葉市花見川区幕張本郷4-8-1","kouzui":"○","gake":"○","takashio":"○","jishin":"○","tsunami":"○","kaji":"×","naisui":"○","kazan":"×","指定避難所との重複":"○","備考":"×"}},
{"type":"Feature","geometry":{"type":"Point","coordinates":[140.0855050000,35.6592290000]},"properties":{"Name":"朝日ヶ丘小学校","Jusho":"千葉県千葉市花見川区朝日ヶ丘2-6-1","kouzui":"○","gake":"○","takashio":"○","jishin":"○","tsunami":"○","kaji":"×","naisui":"○","kazan":"×","指定避難所との重複":"○","備考":"×"}},
{"type":"Feature","geometry":{"type":"Point","coordinates":[140.0459700000,35.6661540000]},"properties":{"Name":"西の谷小学校","Jusho":"千葉県千葉市花見川区幕張本郷3-22-6","kouzui":"○","gake":"○","takashio":"○","jishin":"○","tsunami":"○","kaji":"×","naisui":"○","kazan":"×","指定避難所との重複":"○","備考":"×"}},
{"type":"Feature","geometry":{"type":"Point","coordinates":[140.0690140000,35.6641240000]},"properties":{"Name":"瑞穂小学校","Jusho":"千葉県千葉市花見川区瑞穂1-2","kouzui":"○","gake":"○","takashio":"○","jishin":"○","tsunami":"○","kaji":"×","naisui":"○","kazan":"×","指定避難所との重複":"○","備考":"×"}},
{"type":"Feature","geometry":{"type":"Point","coordinates":[140.0963130000,35.6842750000]},"properties":{"Name":"花島小学校","Jusho":"千葉県千葉市花見川区花見川8-1","kouzui":"○","gake":"○","takashio":"○","jishin":"○","tsunami":"○","kaji":"×","naisui":"○","kazan":"×","指定避難所との重複":"○","備考":"×"}},
{"type":"Feature","geometry":{"type":"Point","coordinates":[140.0978460000,35.6941520000]},"properties":{"Name":"花見川小学校","Jusho":"千葉県千葉市花見川区花見川4-1","kouzui":"○","gake":"○","takashio":"○","jishin":"○","tsunami":"○","kaji":"×","naisui":"○","kazan":"×","指定避難所との重複":"○","備考":"×"}},
{"type":"Feature","geometry":{"type":"Point","coordinates":[140.1013290000,35.6887910000]},"properties":{"Name":"旧花見川第二小学校（跡施設）","Jusho":"千葉県千葉市花見川区花見川6-1","kouzui":"○","gake":"○","takashio":"○","jishin":"○","tsunami":"○","kaji":"×","naisui":"○","kazan":"×","指定避難所との重複":"○","備考":"×"}},
{"type":"Feature","geometry":{"type":"Point","coordinates":[140.0740470000,35.6552990000]},"properties":{"Name":"花園中学校","Jusho":"千葉県千葉市花見川区花園4-1-1","kouzui":"○","gake":"○","takashio":"○","jishin":"○","tsunami":"○","kaji":"×","naisui":"○","kazan":"×","指定避難所との重複":"○","備考":"×"}},
{"type":"Feature","geometry":{"type":"Point","coordinates":[140.1169910000,35.6776810000]},"properties":{"Name":"犢橋中学校","Jusho":"千葉県千葉市花見川区三角町656-2","kouzui":"○","gake":"○","takashio":"○","jishin":"○","tsunami":"○","kaji":"×","naisui":"○","kazan":"×","指定避難所との重複":"○","備考":"×"}},
{"type":"Feature","geometry":{"type":"Point","coordinates":[140.0590580000,35.6629160000]},"properties":{"Name":"幕張中学校","Jusho":"千葉県千葉市花見川区幕張町4-45","kouzui":"○","gake":"○","takashio":"○","jishin":"○","tsunami":"○","kaji":"×","naisui":"○","kazan":"×","指定避難所との重複":"○","備考":"×"}},
{"type":"Feature","geometry":{"type":"Point","coordinates":[140.1192200000,35.6916870000]},"properties":{"Name":"こてはし台中学校","Jusho":"千葉県千葉市花見川区こてはし台5-15-1","kouzui":"○","gake":"○","takashio":"○","jishin":"○","tsunami":"○","kaji":"×","naisui":"○","kazan":"×","指定避難所との重複":"○","備考":"×"}},
{"type":"Feature","geometry":{"type":"Point","coordinates":[140.0913460000,35.6680380000]},"properties":{"Name":"さつきが丘中学校","Jusho":"千葉県千葉市花見川区さつきが丘2-15","kouzui":"○","gake":"○","takashio":"○","jishin":"○","tsunami":"○","kaji":"×","naisui":"○","kazan":"×","指定避難所との重複":"○","備考":"×"}},
{"type":"Feature","geometry":{"type":"Point","coordinates":[140.1112120000,35.6643240000]},"properties":{"Name":"緑が丘中学校","Jusho":"千葉県千葉市花見川区犢橋町213-4","kouzui":"○","gake":"○","takashio":"○","jishin":"○","tsunami":"○","kaji":"×","naisui":"○","kazan":"×","指定避難所との重複":"○","備考":"×"}},
{"type":"Feature","geometry":{"type":"Point","coordinates":[140.0871130000,35.6814480000]},"properties":{"Name":"天戸中学校","Jusho":"千葉県千葉市花見川区天戸町1429","kouzui":"○","gake":"○","takashio":"○","jishin":"○","tsunami":"○","kaji":"×","naisui":"○","kazan":"×","指定避難所との重複":"○","備考":"×"}},
{"type":"Feature","geometry":{"type":"Point","coordinates":[140.0875760000,35.6564890000]},"properties":{"Name":"朝日ヶ丘中学校","Jusho":"千葉県千葉市花見川区朝日ヶ丘2-4-1","kouzui":"○","gake":"○","takashio":"○","jishin":"○","tsunami":"○","kaji":"×","naisui":"○","kazan":"×","指定避難所との重複":"○","備考":"×"}},
{"type":"Feature","geometry":{"type":"Point","coordinates":[140.0476300000,35.6718860000]},"properties":{"Name":"幕張本郷中学校","Jusho":"千葉県千葉市花見川区幕張本郷5-18-1","kouzui":"○","gake":"○","takashio":"○","jishin":"○","tsunami":"○","kaji":"×","naisui":"○","kazan":"×","指定避難所との重複":"○","備考":"×"}},
{"type":"Feature","geometry":{"type":"Point","coordinates":[140.1027190000,35.6890480000]},"properties":{"Name":"花見川中学校","Jusho":"千葉県千葉市花見川区花見川6-2","kouzui":"○","gake":"○","takashio":"○","jishin":"○","tsunami":"○","kaji":"×","naisui":"○","kazan":"×","指定避難所との重複":"○","備考":"×"}},
{"type":"Feature","geometry":{"type":"Point","coordinates":[140.0878110000,35.6827650000]},"properties":{"Name":"旧花見川第二中学校（跡施設）","Jusho":"千葉県千葉市花見川区天戸町1428-1","kouzui":"○","gake":"○","takashio":"○","jishin":"○","tsunami":"○","kaji":"×","naisui":"○","kazan":"×","指定避難所との重複":"○","備考":"×"}},
{"type":"Feature","geometry":{"type":"Point","coordinates":[140.1074420000,35.6981840000]},"properties":{"Name":"県立柏井高等学校","Jusho":"千葉県千葉市花見川区柏井町1452","kouzui":"○","gake":"○","takashio":"○","jishin":"○","tsunami":"○","kaji":"×","naisui":"○","kazan":"×","指定避難所との重複":"○","備考":"×"}},
{"type":"Feature","geometry":{"type":"Point","coordinates":[140.1206090000,35.6781050000]},"properties":{"Name":"県立犢橋高等学校","Jusho":"千葉県千葉市花見川区千種町381-1","kouzui":"○","gake":"○","takashio":"○","jishin":"○","tsunami":"○","kaji":"×","naisui":"○","kazan":"×","指定避難所との重複":"○","備考":"×"}},
{"type":"Feature","geometry":{"type":"Point","coordinates":[140.0554280000,35.6602650000]},"properties":{"Name":"幕張公民館","Jusho":"千葉県千葉市花見川区幕張町4-602","kouzui":"○","gake":"○","takashio":"○","jishin":"○","tsunami":"○","kaji":"×","naisui":"○","kazan":"×","指定避難所との重複":"○","備考":"×"}},
{"type":"Feature","geometry":{"type":"Point","coordinates":[140.0696510000,35.6577820000]},"properties":{"Name":"花園公民館","Jusho":"千葉県千葉市花見川区花園3-12-8","kouzui":"○","gake":"○","takashio":"○","jishin":"○","tsunami":"○","kaji":"×","naisui":"○","kazan":"×","指定避難所との重複":"○","備考":"×"}},
{"type":"Feature","geometry":{"type":"Point","coordinates":[140.1136000000,35.6668100000]},"properties":{"Name":"犢橋公民館","Jusho":"千葉県千葉市花見川区犢橋町162-1","kouzui":"○","gake":"○","takashio":"○","jishin":"○","tsunami":"○","kaji":"×","naisui":"○","kazan":"×","指定避難所との重複":"○","備考":"×"}},
{"type":"Feature","geometry":{"type":"Point","coordinates":[140.0673430000,35.6492680000]},"properties":{"Name":"検見川公民館","Jusho":"千葉県千葉市花見川区検見川町3-322-25","kouzui":"○","gake":"○","takashio":"○","jishin":"○","tsunami":"○","kaji":"×","naisui":"○","kazan":"×","指定避難所との重複":"○","備考":"×"}},
{"type":"Feature","geometry":{"type":"Point","coordinates":[140.0996790000,35.6955910000]},"properties":{"Name":"花見川公民館","Jusho":"千葉県千葉市花見川区柏井町1590-8","kouzui":"○","gake":"○","takashio":"○","jishin":"○","tsunami":"○","kaji":"×","naisui":"○","kazan":"×","指定避難所との重複":"○","備考":"×"}},
{"type":"Feature","geometry":{"type":"Point","coordinates":[140.0969230000,35.6650810000]},"properties":{"Name":"さつきが丘公民館","Jusho":"千葉県千葉市花見川区さつきが丘1-32-4","kouzui":"○","gake":"○","takashio":"○","jishin":"○","tsunami":"○","kaji":"×","naisui":"○","kazan":"×","指定避難所との重複":"○","備考":"×"}},
{"type":"Feature","geometry":{"type":"Point","coordinates":[140.1210330000,35.6929350000]},"properties":{"Name":"こてはし台公民館","Jusho":"千葉県千葉市花見川区横戸町861-4","kouzui":"○","gake":"○","takashio":"○","jishin":"○","tsunami":"○","kaji":"×","naisui":"○","kazan":"×","指定避難所との重複":"○","備考":"×"}},
{"type":"Feature","geometry":{"type":"Point","coordinates":[140.0790250000,35.6803420000]},"properties":{"Name":"長作公民館","Jusho":"千葉県千葉市花見川区長作町1722-1","kouzui":"○","gake":"○","takashio":"○","jishin":"○","tsunami":"○","kaji":"×","naisui":"○","kazan":"×","指定避難所との重複":"○","備考":"×"}},
{"type":"Feature","geometry":{"type":"Point","coordinates":[140.0891700000,35.6555710000]},"properties":{"Name":"朝日ヶ丘公民館","Jusho":"千葉県千葉市花見川区朝日ヶ丘1-1-30","kouzui":"○","gake":"○","takashio":"○","jishin":"○","tsunami":"○","kaji":"×","naisui":"○","kazan":"×","指定避難所との重複":"○","備考":"×"}},
{"type":"Feature","geometry":{"type":"Point","coordinates":[140.0391700000,35.6681900000]},"properties":{"Name":"幕張本郷公民館","Jusho":"千葉県千葉市花見川区幕張本郷2-19-33","kouzui":"○","gake":"○","takashio":"○","jishin":"○","tsunami":"○","kaji":"×","naisui":"○","kazan":"×","指定避難所との重複":"○","備考":"×"}},
{"type":"Feature","geometry":{"type":"Point","coordinates":[140.0793140000,35.6669760000]},"properties":{"Name":"畑コミュニティセンター","Jusho":"千葉県千葉市花見川区畑町1336-2","kouzui":"○","gake":"○","takashio":"○","jishin":"○","tsunami":"○","kaji":"×","naisui":"○","kazan":"×","指定避難所との重複":"○","備考":"×"}},
{"type":"Feature","geometry":{"type":"Point","coordinates":[140.0475970000,35.6565150000]},"properties":{"Name":"幕張コミュニティセンター","Jusho":"千葉県千葉市花見川区幕張町3-7730-4","kouzui":"○","gake":"○","takashio":"○","jishin":"○","tsunami":"○","kaji":"×","naisui":"○","kazan":"×","指定避難所との重複":"○","備考":"×"}},
{"type":"Feature","geometry":{"type":"Point","coordinates":[140.0968910000,35.6814970000]},"properties":{"Name":"花島コミュニティセンター","Jusho":"千葉県千葉市花見川区花島町308","kouzui":"○","gake":"○","takashio":"○","jishin":"○","tsunami":"○","kaji":"×","naisui":"○","kazan":"×","指定避難所との重複":"○","備考":"×"}},
{"type":"Feature","geometry":{"type":"Point","coordinates":[140.0420770000,35.6688310000]},"properties":{"Name":"一本松公園","Jusho":"千葉県千葉市花見川区幕張本郷2-33","kouzui":"○","gake":"○","takashio":"○","jishin":"○","tsunami":"○","kaji":"×","naisui":"○","kazan":"×","指定避難所との重複":"×","備考":"×"}},
{"type":"Feature","geometry":{"type":"Point","coordinates":[140.1378540000,35.6922940000]},"properties":{"Name":"宇那谷み春野公園","Jusho":"千葉県千葉市花見川区宇那谷町2115","kouzui":"○","gake":"○","takashio":"○","jishin":"○","tsunami":"○","kaji":"×","naisui":"○","kazan":"×","指定避難所との重複":"×","備考":"×"}},
{"type":"Feature","geometry":{"type":"Point","coordinates":[140.0901890000,35.6703390000]},"properties":{"Name":"神場公園","Jusho":"千葉県千葉市花見川区さつきが丘2","kouzui":"○","gake":"○","takashio":"○","jishin":"○","tsunami":"○","kaji":"×","naisui":"○","kazan":"×","指定避難所との重複":"×","備考":"×"}},
{"type":"Feature","geometry":{"type":"Point","coordinates":[140.0956090000,35.6636860000]},"properties":{"Name":"犢橋貝塚公園","Jusho":"千葉県千葉市花見川区さつきが丘1-18","kouzui":"○","gake":"○","takashio":"○","jishin":"○","tsunami":"○","kaji":"×","naisui":"○","kazan":"×","指定避難所との重複":"×","備考":"×"}},
{"type":"Feature","geometry":{"type":"Point","coordinates":[140.1197940000,35.6879540000]},"properties":{"Name":"こてはし台公園","Jusho":"千葉県千葉市花見川区こてはし台4-21","kouzui":"○","gake":"○","takashio":"○","jishin":"○","tsunami":"○","kaji":"×","naisui":"○","kazan":"×","指定避難所との重複":"×","備考":"×"}},
{"type":"Feature","geometry":{"type":"Point","coordinates":[140.0969720000,35.6829980000]},"properties":{"Name":"花島公園","Jusho":"千葉県千葉市花見川区花島町493-1","kouzui":"○","gake":"○","takashio":"○","jishin":"○","tsunami":"○","kaji":"×","naisui":"○","kazan":"×","指定避難所との重複":"×","備考":"×"}},
{"type":"Feature","geometry":{"type":"Point","coordinates":[140.0487800000,35.6746660000]},"properties":{"Name":"幕張台公園","Jusho":"千葉県千葉市花見川区幕張本郷7-23","kouzui":"○","gake":"○","takashio":"○","jishin":"○","tsunami":"○","kaji":"×","naisui":"○","kazan":"×","指定避難所との重複":"×","備考":"×"}},
{"type":"Feature","geometry":{"type":"Point","coordinates":[140.0488320000,35.6575590000]},"properties":{"Name":"幕張舟溜跡公園","Jusho":"千葉県千葉市花見川区幕張町3","kouzui":"○","gake":"○","takashio":"×","jishin":"○","tsunami":"○","kaji":"×","naisui":"○","kazan":"×","指定避難所との重複":"×","備考":"×"}},
{"type":"Feature","geometry":{"type":"Point","coordinates":[140.0751690000,35.6597020000]},"properties":{"Name":"東大検見川総合運動場","Jusho":"千葉県千葉市花見川区朝日ヶ丘町他","kouzui":"○","gake":"○","takashio":"○","jishin":"○","tsunami":"○","kaji":"○","naisui":"○","kazan":"×","指定避難所との重複":"×","備考":"×"}},
{"type":"Feature","geometry":{"type":"Point","coordinates":[140.1096300000,35.7047400000]},"properties":{"Name":"鷹之台カンツリー倶楽部（※建物を含まない）","Jusho":"千葉県千葉市花見川区柏井町他","kouzui":"○","gake":"○","takashio":"○","jishin":"○","tsunami":"○","kaji":"○","naisui":"○","kazan":"×","指定避難所との重複":"×","備考":"×"}},
{"type":"Feature","geometry":{"type":"Point","coordinates":[140.1154120000,35.6791650000]},"properties":{"Name":"千葉工業大学グラウンド一帯","Jusho":"千葉県千葉市花見川区千種町300他","kouzui":"○","gake":"○","takashio":"○","jishin":"○","tsunami":"○","kaji":"○","naisui":"○","kazan":"×","指定避難所との重複":"×","備考":"×"}},
{"type":"Feature","geometry":{"type":"Point","coordinates":[140.1027190000,35.6890480000]},"properties":{"Name":"花見川中学校一帯","Jusho":"千葉県千葉市花見川区花見川6-1他","kouzui":"○","gake":"○","takashio":"○","jishin":"○","tsunami":"○","kaji":"○","naisui":"○","kazan":"×","指定避難所との重複":"×","備考":"×"}},
{"type":"Feature","geometry":{"type":"Point","coordinates":[140.1200680000,35.6291520000]},"properties":{"Name":"都賀小学校","Jusho":"千葉県千葉市稲毛区作草部町938","kouzui":"○","gake":"○","takashio":"○","jishin":"○","tsunami":"○","kaji":"×","naisui":"○","kazan":"×","指定避難所との重複":"○","備考":"×"}},
{"type":"Feature","geometry":{"type":"Point","coordinates":[140.0829200000,35.6406200000]},"properties":{"Name":"稲毛小学校","Jusho":"千葉県千葉市稲毛区稲毛町5-534-5","kouzui":"×","gake":"○","takashio":"○","jishin":"○","tsunami":"○","kaji":"×","naisui":"×","kazan":"×","指定避難所との重複":"○","備考":"×"}},
{"type":"Feature","geometry":{"type":"Point","coordinates":[140.0978990000,35.6472790000]},"properties":{"Name":"園生小学校","Jusho":"千葉県千葉市稲毛区小仲台9-30-1","kouzui":"○","gake":"○","takashio":"○","jishin":"○","tsunami":"○","kaji":"×","naisui":"○","kazan":"×","指定避難所との重複":"○","備考":"×"}},
{"type":"Feature","geometry":{"type":"Point","coordinates":[140.0880130000,35.6326060000]},"properties":{"Name":"稲丘小学校","Jusho":"千葉県千葉市稲毛区稲丘町19-30","kouzui":"○","gake":"○","takashio":"○","jishin":"○","tsunami":"○","kaji":"×","naisui":"○","kazan":"×","指定避難所との重複":"○","備考":"×"}},
{"type":"Feature","geometry":{"type":"Point","coordinates":[140.1011360000,35.6258030000]},"properties":{"Name":"弥生小学校","Jusho":"千葉県千葉市稲毛区弥生町3-18","kouzui":"○","gake":"○","takashio":"○","jishin":"○","tsunami":"○","kaji":"×","naisui":"○","kazan":"×","指定避難所との重複":"○","備考":"×"}},
{"type":"Feature","geometry":{"type":"Point","coordinates":[140.1083090000,35.6303060000]},"properties":{"Name":"轟町小学校","Jusho":"千葉県千葉市稲毛区轟町3-4-30","kouzui":"○","gake":"○","takashio":"○","jishin":"○","tsunami":"○","kaji":"×","naisui":"○","kazan":"×","指定避難所との重複":"○","備考":"×"}},
{"type":"Feature","geometry":{"type":"Point","coordinates":[140.0977530000,35.6234420000]},"properties":{"Name":"緑町小学校","Jusho":"千葉県千葉市稲毛区緑町2-13-1","kouzui":"○","gake":"○","takashio":"○","jishin":"○","tsunami":"○","kaji":"×","naisui":"○","kazan":"×","指定避難所との重複":"○","備考":"×"}},
{"type":"Feature","geometry":{"type":"Point","coordinates":[140.1426850000,35.6653410000]},"properties":{"Name":"山王小学校","Jusho":"千葉県千葉市稲毛区山王町121","kouzui":"○","gake":"○","takashio":"○","jishin":"○","tsunami":"○","kaji":"×","naisui":"○","kazan":"×","指定避難所との重複":"○","備考":"×"}},
{"type":"Feature","geometry":{"type":"Point","coordinates":[140.0958540000,35.6396760000]},"properties":{"Name":"小中台小学校","Jusho":"千葉県千葉市稲毛区小仲台6-34-1","kouzui":"○","gake":"○","takashio":"○","jishin":"○","tsunami":"○","kaji":"×","naisui":"○","kazan":"×","指定避難所との重複":"○","備考":"×"}},
{"type":"Feature","geometry":{"type":"Point","coordinates":[140.1160070000,35.6382250000]},"properties":{"Name":"千草台小学校","Jusho":"千葉県千葉市稲毛区天台5-11-1","kouzui":"○","gake":"○","takashio":"○","jishin":"○","tsunami":"○","kaji":"×","naisui":"○","kazan":"×","指定避難所との重複":"○","備考":"×"}},
{"type":"Feature","geometry":{"type":"Point","coordinates":[140.1157210000,35.6468710000]},"properties":{"Name":"あやめ台小学校","Jusho":"千葉県千葉市稲毛区園生町446-1","kouzui":"○","gake":"○","takashio":"○","jishin":"○","tsunami":"○","kaji":"×","naisui":"○","kazan":"×","指定避難所との重複":"○","備考":"×"}},
{"type":"Feature","geometry":{"type":"Point","coordinates":[140.1097340000,35.6589640000]},"properties":{"Name":"宮野木小学校","Jusho":"千葉県千葉市稲毛区宮野木町2100","kouzui":"○","gake":"○","takashio":"○","jishin":"○","tsunami":"○","kaji":"×","naisui":"○","kazan":"×","指定避難所との重複":"○","備考":"×"}},
{"type":"Feature","geometry":{"type":"Point","coordinates":[140.1255330000,35.6531700000]},"properties":{"Name":"草野小学校","Jusho":"千葉県千葉市稲毛区園生町1385","kouzui":"○","gake":"○","takashio":"○","jishin":"○","tsunami":"○","kaji":"×","naisui":"○","kazan":"×","指定避難所との重複":"○","備考":"×"}},
{"type":"Feature","geometry":{"type":"Point","coordinates":[140.1073400000,35.6486130000]},"properties":{"Name":"柏台小学校","Jusho":"千葉県千葉市稲毛区園生町588","kouzui":"○","gake":"○","takashio":"○","jishin":"○","tsunami":"○","kaji":"×","naisui":"○","kazan":"×","指定避難所との重複":"○","備考":"×"}},
{"type":"Feature","geometry":{"type":"Point","coordinates":[140.0893950000,35.6465890000]},"properties":{"Name":"小中台南小学校","Jusho":"千葉県千葉市稲毛区小仲台8-15-1","kouzui":"○","gake":"○","takashio":"○","jishin":"○","tsunami":"○","kaji":"×","naisui":"○","kazan":"×","指定避難所との重複":"○","備考":"×"}},
{"type":"Feature","geometry":{"type":"Point","coordinates":[140.1229880000,35.6316690000]},"properties":{"Name":"千草台東小学校","Jusho":"千葉県千葉市稲毛区作草部町1298-1","kouzui":"○","gake":"○","takashio":"○","jishin":"○","tsunami":"○","kaji":"×","naisui":"○","kazan":"×","指定避難所との重複":"○","備考":"×"}},
{"type":"Feature","geometry":{"type":"Point","coordinates":[140.1093830000,35.6315060000]},"properties":{"Name":"市立第二養護学校","Jusho":"千葉県千葉市稲毛区轟町3-6-25","kouzui":"○","gake":"○","takashio":"○","jishin":"○","tsunami":"○","kaji":"×","naisui":"○","kazan":"×","指定避難所との重複":"○","備考":"×"}},
{"type":"Feature","geometry":{"type":"Point","coordinates":[140.0968700000,35.6224320000]},"properties":{"Name":"緑町中学校","Jusho":"千葉県千葉市稲毛区緑町2-3-1","kouzui":"○","gake":"○","takashio":"○","jishin":"○","tsunami":"○","kaji":"×","naisui":"○","kazan":"×","指定避難所との重複":"○","備考":"×"}},
{"type":"Feature","geometry":{"type":"Point","coordinates":[140.0994220000,35.6458960000]},"properties":{"Name":"小中台中学校","Jusho":"千葉県千葉市稲毛区小仲台9-46-2","kouzui":"○","gake":"○","takashio":"○","jishin":"○","tsunami":"○","kaji":"×","naisui":"○","kazan":"×","指定避難所との重複":"○","備考":"×"}},
{"type":"Feature","geometry":{"type":"Point","coordinates":[140.1080640000,35.6311760000]},"properties":{"Name":"轟町中学校","Jusho":"千葉県千葉市稲毛区轟町3-5-14","kouzui":"○","gake":"○","takashio":"○","jishin":"○","tsunami":"○","kaji":"×","naisui":"○","kazan":"×","指定避難所との重複":"○","備考":"×"}},
{"type":"Feature","geometry":{"type":"Point","coordinates":[140.0821000000,35.6439270000]},"properties":{"Name":"稲毛中学校","Jusho":"千葉県千葉市稲毛区稲毛町5-120","kouzui":"○","gake":"○","takashio":"○","jishin":"○","tsunami":"○","kaji":"×","naisui":"○","kazan":"×","指定避難所との重複":"○","備考":"×"}},
{"type":"Feature","geometry":{"type":"Point","coordinates":[140.1179230000,35.6367970000]},"properties":{"Name":"千草台中学校","Jusho":"千葉県千葉市稲毛区千草台2-3-1","kouzui":"○","gake":"○","takashio":"○","jishin":"○","tsunami":"○","kaji":"×","naisui":"○","kazan":"×","指定避難所との重複":"○","備考":"×"}},
{"type":"Feature","geometry":{"type":"Point","coordinates":[140.1274530000,35.6524740000]},"properties":{"Name":"草野中学校","Jusho":"千葉県千葉市稲毛区園生町1397","kouzui":"○","gake":"○","takashio":"○","jishin":"○","tsunami":"○","kaji":"×","naisui":"○","kazan":"×","指定避難所との重複":"○","備考":"×"}},
{"type":"Feature","geometry":{"type":"Point","coordinates":[140.1231010000,35.6310220000]},"properties":{"Name":"都賀中学校","Jusho":"千葉県千葉市稲毛区作草部町1306-1","kouzui":"○","gake":"○","takashio":"○","jishin":"○","tsunami":"○","kaji":"×","naisui":"○","kazan":"×","指定避難所との重複":"○","備考":"×"}},
{"type":"Feature","geometry":{"type":"Point","coordinates":[140.0994610000,35.6440480000]},"properties":{"Name":"市立千葉高等学校","Jusho":"千葉県千葉市稲毛区小仲台9-46-1","kouzui":"○","gake":"○","takashio":"○","jishin":"○","tsunami":"○","kaji":"×","naisui":"○","kazan":"×","指定避難所との重複":"○","備考":"×"}},
{"type":"Feature","geometry":{"type":"Point","coordinates":[140.1000740000,35.6415130000]},"properties":{"Name":"県立千葉女子高等学校","Jusho":"千葉県千葉市稲毛区小仲台5-10-1","kouzui":"○","gake":"○","takashio":"○","jishin":"○","tsunami":"○","kaji":"×","naisui":"○","kazan":"×","指定避難所との重複":"○","備考":"×"}},
{"type":"Feature","geometry":{"type":"Point","coordinates":[140.1111610000,35.6257680000]},"properties":{"Name":"県立千葉東高等学校","Jusho":"千葉県千葉市稲毛区轟町1-18-52","kouzui":"○","gake":"○","takashio":"○","jishin":"○","tsunami":"○","kaji":"×","naisui":"○","kazan":"×","指定避難所との重複":"○","備考":"×"}},
{"type":"Feature","geometry":{"type":"Point","coordinates":[140.1052870000,35.6381430000]},"properties":{"Name":"県立京葉工業高等学校","Jusho":"千葉県千葉市稲毛区穴川4-11-32","kouzui":"○","gake":"○","takashio":"○","jishin":"○","tsunami":"○","kaji":"×","naisui":"○","kazan":"×","指定避難所との重複":"○","備考":"×"}},
{"type":"Feature","geometry":{"type":"Point","coordinates":[140.1136850000,35.6621910000]},"properties":{"Name":"県立千葉北高等学校","Jusho":"千葉県千葉市稲毛区長沼町153","kouzui":"○","gake":"○","takashio":"○","jishin":"○","tsunami":"○","kaji":"×","naisui":"○","kazan":"×","指定避難所との重複":"○","備考":"×"}},
{"type":"Feature","geometry":{"type":"Point","coordinates":[140.0990820000,35.6393610000]},"properties":{"Name":"小中台公民館","Jusho":"千葉県千葉市稲毛区小仲台5-7-1","kouzui":"○","gake":"○","takashio":"○","jishin":"○","tsunami":"○","kaji":"×","naisui":"○","kazan":"×","指定避難所との重複":"○","備考":"×"}},
{"type":"Feature","geometry":{"type":"Point","coordinates":[140.0939870000,35.6264390000]},"properties":{"Name":"黒砂公民館","Jusho":"千葉県千葉市稲毛区黒砂2-4-18","kouzui":"○","gake":"○","takashio":"○","jishin":"○","tsunami":"○","kaji":"×","naisui":"○","kazan":"×","指定避難所との重複":"○","備考":"×"}},
{"type":"Feature","geometry":{"type":"Point","coordinates":[140.1097210000,35.6246840000]},"properties":{"Name":"轟公民館","Jusho":"千葉県千葉市稲毛区轟町1-12-3","kouzui":"○","gake":"○","takashio":"○","jishin":"○","tsunami":"○","kaji":"×","naisui":"○","kazan":"×","指定避難所との重複":"○","備考":"×"}},
{"type":"Feature","geometry":{"type":"Point","coordinates":[140.0833900000,35.6365620000]},"properties":{"Name":"稲毛公民館","Jusho":"千葉県千葉市稲毛区稲毛1-10-17","kouzui":"○","gake":"○","takashio":"○","jishin":"○","tsunami":"○","kaji":"×","naisui":"○","kazan":"×","指定避難所との重複":"○","備考":"×"}},
{"type":"Feature","geometry":{"type":"Point","coordinates":[140.1168000000,35.6337740000]},"properties":{"Name":"千草台公民館","Jusho":"千葉県千葉市稲毛区天台3-16-5","kouzui":"○","gake":"○","takashio":"○","jishin":"○","tsunami":"○","kaji":"×","naisui":"○","kazan":"×","指定避難所との重複":"○","備考":"×"}},
{"type":"Feature","geometry":{"type":"Point","coordinates":[140.1197920000,35.6540720000]},"properties":{"Name":"草野公民館","Jusho":"千葉県千葉市稲毛区園生町384-93","kouzui":"○","gake":"○","takashio":"○","jishin":"○","tsunami":"○","kaji":"×","naisui":"○","kazan":"×","指定避難所との重複":"○","備考":"×"}},
{"type":"Feature","geometry":{"type":"Point","coordinates":[140.1455630000,35.6575310000]},"properties":{"Name":"山王公民館","Jusho":"千葉県千葉市稲毛区六方町55-29","kouzui":"○","gake":"○","takashio":"○","jishin":"○","tsunami":"○","kaji":"×","naisui":"○","kazan":"×","指定避難所との重複":"○","備考":"×"}},
{"type":"Feature","geometry":{"type":"Point","coordinates":[140.1176970000,35.6254840000]},"properties":{"Name":"都賀公民館","Jusho":"千葉県千葉市稲毛区作草部2-8-53","kouzui":"○","gake":"○","takashio":"○","jishin":"○","tsunami":"○","kaji":"×","naisui":"○","kazan":"×","指定避難所との重複":"○","備考":"×"}},
{"type":"Feature","geometry":{"type":"Point","coordinates":[140.1072280000,35.6578170000]},"properties":{"Name":"緑が丘公民館","Jusho":"千葉県千葉市稲毛区宮野木町1807-3","kouzui":"○","gake":"○","takashio":"○","jishin":"○","tsunami":"○","kaji":"×","naisui":"○","kazan":"×","指定避難所との重複":"○","備考":"×"}},
{"type":"Feature","geometry":{"type":"Point","coordinates":[140.1064680000,35.6362700000]},"properties":{"Name":"穴川コミュニティセンター","Jusho":"千葉県千葉市稲毛区穴川4-12-3","kouzui":"○","gake":"○","takashio":"○","jishin":"○","tsunami":"○","kaji":"×","naisui":"○","kazan":"×","指定避難所との重複":"○","備考":"×"}},
{"type":"Feature","geometry":{"type":"Point","coordinates":[140.1261710000,35.6633810000]},"properties":{"Name":"長沼コミュニティセンター","Jusho":"千葉県千葉市稲毛区長沼町461-8","kouzui":"○","gake":"○","takashio":"○","jishin":"○","tsunami":"○","kaji":"×","naisui":"○","kazan":"×","指定避難所との重複":"○","備考":"×"}},
{"type":"Feature","geometry":{"type":"Point","coordinates":[140.1058190000,35.6629900000]},"properties":{"Name":"宮野木スポーツセンター体育館","Jusho":"千葉県千葉市稲毛区宮野木町2150-4","kouzui":"○","gake":"○","takashio":"○","jishin":"○","tsunami":"○","kaji":"×","naisui":"○","kazan":"×","指定避難所との重複":"○","備考":"×"}},
{"type":"Feature","geometry":{"type":"Point","coordinates":[140.1299420000,35.6683960000]},"properties":{"Name":"長沼原勤労市民プラザ","Jusho":"千葉県千葉市稲毛区長沼原町304-1","kouzui":"○","gake":"○","takashio":"○","jishin":"○","tsunami":"○","kaji":"×","naisui":"○","kazan":"×","指定避難所との重複":"○","備考":"×"}},
{"type":"Feature","geometry":{"type":"Point","coordinates":[140.0826720000,35.6361480000]},"properties":{"Name":"稲毛公園","Jusho":"千葉県千葉市稲毛区稲毛1-10","kouzui":"○","gake":"○","takashio":"○","jishin":"○","tsunami":"○","kaji":"×","naisui":"○","kazan":"×","指定避難所との重複":"×","備考":"×"}},
{"type":"Feature","geometry":{"type":"Point","coordinates":[140.0869220000,35.6415150000]},"properties":{"Name":"稲毛東公園","Jusho":"千葉県千葉市稲毛区稲毛東5-8","kouzui":"○","gake":"○","takashio":"○","jishin":"○","tsunami":"○","kaji":"×","naisui":"○","kazan":"×","指定避難所との重複":"×","備考":"×"}},
{"type":"Feature","geometry":{"type":"Point","coordinates":[140.1024130000,35.6383800000]},"properties":{"Name":"小園公園","Jusho":"千葉県千葉市稲毛区小仲台4-2","kouzui":"○","gake":"○","takashio":"○","jishin":"○","tsunami":"○","kaji":"×","naisui":"○","kazan":"×","指定避難所との重複":"×","備考":"×"}},
{"type":"Feature","geometry":{"type":"Point","coordinates":[140.0918090000,35.6522510000]},"properties":{"Name":"小中台西公園","Jusho":"千葉県千葉市稲毛区小中台町400-1","kouzui":"○","gake":"○","takashio":"○","jishin":"○","tsunami":"○","kaji":"×","naisui":"○","kazan":"×","指定避難所との重複":"×","備考":"×"}},
{"type":"Feature","geometry":{"type":"Point","coordinates":[140.1374810000,35.6636130000]},"properties":{"Name":"山王ふれあい公園","Jusho":"千葉県千葉市稲毛区山王町182他","kouzui":"○","gake":"○","takashio":"○","jishin":"○","tsunami":"○","kaji":"×","naisui":"○","kazan":"×","指定避難所との重複":"×","備考":"×"}},
{"type":"Feature","geometry":{"type":"Point","coordinates":[140.1131630000,35.6565970000]},"properties":{"Name":"長沼町公園","Jusho":"千葉県千葉市稲毛区長沼町255-1","kouzui":"○","gake":"○","takashio":"○","jishin":"○","tsunami":"○","kaji":"×","naisui":"○","kazan":"×","指定避難所との重複":"×","備考":"×"}},
{"type":"Feature","geometry":{"type":"Point","coordinates":[140.0975870000,35.6392400000]},"properties":{"Name":"仲よし公園","Jusho":"千葉県千葉市稲毛区小仲台5-1","kouzui":"○","gake":"○","takashio":"○","jishin":"○","tsunami":"○","kaji":"×","naisui":"○","kazan":"×","指定避難所との重複":"×","備考":"×"}},
{"type":"Feature","geometry":{"type":"Point","coordinates":[140.0979110000,35.6304850000]},"properties":{"Name":"西千葉公園","Jusho":"千葉県千葉市稲毛区黒砂台3-1","kouzui":"○","gake":"○","takashio":"○","jishin":"○","tsunami":"○","kaji":"×","naisui":"○","kazan":"×","指定避難所との重複":"×","備考":"×"}},
{"type":"Feature","geometry":{"type":"Point","coordinates":[140.1310440000,35.6656990000]},"properties":{"Name":"スマートコミュニティ稲毛グラウンド","Jusho":"千葉県千葉市稲毛区長沼原町882-1","kouzui":"○","gake":"○","takashio":"○","jishin":"○","tsunami":"○","kaji":"○","naisui":"○","kazan":"×","指定避難所との重複":"×","備考":"×"}},
{"type":"Feature","geometry":{"type":"Point","coordinates":[140.1201600000,35.6486480000]},"properties":{"Name":"千葉県総合スポーツセンター","Jusho":"千葉県千葉市稲毛区天台町323","kouzui":"○","gake":"○","takashio":"○","jishin":"○","tsunami":"○","kaji":"○","naisui":"○","kazan":"×","指定避難所との重複":"×","備考":"×"}},
{"type":"Feature","geometry":{"type":"Point","coordinates":[140.1028280000,35.6268840000]},"properties":{"Name":"千葉大学構内（※建物を含まない）","Jusho":"千葉県千葉市稲毛区弥生町1-33","kouzui":"○","gake":"○","takashio":"○","jishin":"○","tsunami":"○","kaji":"○","naisui":"○","kazan":"×","指定避難所との重複":"×","備考":"×"}},
{"type":"Feature","geometry":{"type":"Point","coordinates":[140.1687450000,35.6000510000]},"properties":{"Name":"千城小学校","Jusho":"千葉県千葉市若葉区大宮町2655","kouzui":"○","gake":"○","takashio":"○","jishin":"○","tsunami":"○","kaji":"×","naisui":"○","kazan":"×","指定避難所との重複":"○","備考":"×"}},
{"type":"Feature","geometry":{"type":"Point","coordinates":[140.1679200000,35.6407850000]},"properties":{"Name":"若松小学校","Jusho":"千葉県千葉市若葉区若松町360-1","kouzui":"○","gake":"○","takashio":"○","jishin":"○","tsunami":"○","kaji":"×","naisui":"○","kazan":"×","指定避難所との重複":"○","備考":"×"}},
{"type":"Feature","geometry":{"type":"Point","coordinates":[140.1815800000,35.6120230000]},"properties":{"Name":"坂月小学校","Jusho":"千葉県千葉市若葉区坂月町298","kouzui":"○","gake":"○","takashio":"○","jishin":"○","tsunami":"○","kaji":"×","naisui":"○","kazan":"×","指定避難所との重複":"○","備考":"×"}},
{"type":"Feature","geometry":{"type":"Point","coordinates":[140.2309740000,35.5809070000]},"properties":{"Name":"白井小学校","Jusho":"千葉県千葉市若葉区野呂町215","kouzui":"○","gake":"○","takashio":"○","jishin":"○","tsunami":"○","kaji":"×","naisui":"○","kazan":"×","指定避難所との重複":"○","備考":"×"}},
{"type":"Feature","geometry":{"type":"Point","coordinates":[140.2280210000,35.6192930000]},"properties":{"Name":"更科小学校","Jusho":"千葉県千葉市若葉区更科町2073","kouzui":"○","gake":"○","takashio":"○","jishin":"○","tsunami":"○","kaji":"×","naisui":"○","kazan":"×","指定避難所との重複":"○","備考":"×"}},
{"type":"Feature","geometry":{"type":"Point","coordinates":[140.2377180000,35.6001510000]},"properties":{"Name":"更科小学校富田分校","Jusho":"千葉県千葉市若葉区富田町83","kouzui":"○","gake":"○","takashio":"○","jishin":"○","tsunami":"○","kaji":"×","naisui":"○","kazan":"×","指定避難所との重複":"×","備考":"×"}},
{"type":"Feature","geometry":{"type":"Point","coordinates":[140.2146940000,35.6400090000]},"properties":{"Name":"旧更科小学校下田分校（跡施設）","Jusho":"千葉県千葉市若葉区下田町573","kouzui":"○","gake":"○","takashio":"○","jishin":"○","tsunami":"○","kaji":"×","naisui":"○","kazan":"×","指定避難所との重複":"×","備考":"×"}},
{"type":"Feature","geometry":{"type":"Point","coordinates":[140.1822350000,35.5961810000]},"properties":{"Name":"大宮小学校","Jusho":"千葉県千葉市若葉区大宮台7-8-1","kouzui":"○","gake":"○","takashio":"○","jishin":"○","tsunami":"○","kaji":"×","naisui":"○","kazan":"×","指定避難所との重複":"○","備考":"×"}},
{"type":"Feature","geometry":{"type":"Point","coordinates":[140.1730370000,35.6319030000]},"properties":{"Name":"小倉小学校","Jusho":"千葉県千葉市若葉区小倉台5-1-1","kouzui":"○","gake":"○","takashio":"○","jishin":"○","tsunami":"○","kaji":"×","naisui":"○","kazan":"×","指定避難所との重複":"○","備考":"×"}},
{"type":"Feature","geometry":{"type":"Point","coordinates":[140.1595170000,35.6211050000]},"properties":{"Name":"桜木小学校","Jusho":"千葉県千葉市若葉区桜木3-26-1","kouzui":"○","gake":"○","takashio":"○","jishin":"○","tsunami":"○","kaji":"×","naisui":"○","kazan":"×","指定避難所との重複":"○","備考":"×"}},
{"type":"Feature","geometry":{"type":"Point","coordinates":[140.1837200000,35.6286980000]},"properties":{"Name":"千城台北小学校","Jusho":"千葉県千葉市若葉区千城台北1-4-1","kouzui":"○","gake":"○","takashio":"○","jishin":"○","tsunami":"○","kaji":"×","naisui":"○","kazan":"×","指定避難所との重複":"○","備考":"×"}},
{"type":"Feature","geometry":{"type":"Point","coordinates":[140.1825510000,35.6227640000]},"properties":{"Name":"千城台西小学校","Jusho":"千葉県千葉市若葉区千城台西2-21-1","kouzui":"○","gake":"○","takashio":"○","jishin":"○","tsunami":"○","kaji":"×","naisui":"○","kazan":"×","指定避難所との重複":"○","備考":"×"}},
{"type":"Feature","geometry":{"type":"Point","coordinates":[140.1450340000,35.6286650000]},"properties":{"Name":"北貝塚小学校","Jusho":"千葉県千葉市若葉区貝塚町1093","kouzui":"○","gake":"○","takashio":"○","jishin":"○","tsunami":"○","kaji":"×","naisui":"○","kazan":"×","指定避難所との重複":"○","備考":"×"}},
{"type":"Feature","geometry":{"type":"Point","coordinates":[140.1861840000,35.5850790000]},"properties":{"Name":"大宮台小学校","Jusho":"千葉県千葉市若葉区大宮町2082","kouzui":"○","gake":"○","takashio":"○","jishin":"○","tsunami":"○","kaji":"×","naisui":"○","kazan":"×","指定避難所との重複":"○","備考":"×"}},
{"type":"Feature","geometry":{"type":"Point","coordinates":[140.1915120000,35.6223400000]},"properties":{"Name":"千城台東小学校","Jusho":"千葉県千葉市若葉区千城台東1-15-1","kouzui":"○","gake":"○","takashio":"○","jishin":"○","tsunami":"○","kaji":"×","naisui":"○","kazan":"×","指定避難所との重複":"○","備考":"×"}},
{"type":"Feature","geometry":{"type":"Point","coordinates":[140.1893260000,35.6182730000]},"properties":{"Name":"千城台南小学校","Jusho":"千葉県千葉市若葉区千城台南1-19-1","kouzui":"○","gake":"○","takashio":"○","jishin":"○","tsunami":"○","kaji":"×","naisui":"○","kazan":"×","指定避難所との重複":"○","備考":"×"}},
{"type":"Feature","geometry":{"type":"Point","coordinates":[140.1378460000,35.6420340000]},"properties":{"Name":"みつわ台北小学校","Jusho":"千葉県千葉市若葉区みつわ台3-5-1","kouzui":"○","gake":"○","takashio":"○","jishin":"○","tsunami":"○","kaji":"×","naisui":"○","kazan":"×","指定避難所との重複":"○","備考":"×"}},
{"type":"Feature","geometry":{"type":"Point","coordinates":[140.1959270000,35.6173500000]},"properties":{"Name":"千城台旭小学校","Jusho":"千葉県千葉市若葉区千城台東3-18-1","kouzui":"○","gake":"○","takashio":"○","jishin":"○","tsunami":"○","kaji":"×","naisui":"○","kazan":"×","指定避難所との重複":"○","備考":"×"}},
{"type":"Feature","geometry":{"type":"Point","coordinates":[140.1308160000,35.6346030000]},"properties":{"Name":"みつわ台南小学校","Jusho":"千葉県千葉市若葉区みつわ台1-17-1","kouzui":"○","gake":"○","takashio":"○","jishin":"○","tsunami":"○","kaji":"×","naisui":"○","kazan":"×","指定避難所との重複":"○","備考":"×"}},
{"type":"Feature","geometry":{"type":"Point","coordinates":[140.1719060000,35.6498610000]},"properties":{"Name":"若松台小学校","Jusho":"千葉県千葉市若葉区若松台2-25-1","kouzui":"○","gake":"○","takashio":"○","jishin":"○","tsunami":"○","kaji":"×","naisui":"○","kazan":"×","指定避難所との重複":"○","備考":"×"}},
{"type":"Feature","geometry":{"type":"Point","coordinates":[140.1416630000,35.6438330000]},"properties":{"Name":"都賀の台小学校","Jusho":"千葉県千葉市若葉区都賀の台2-13-1","kouzui":"○","gake":"○","takashio":"○","jishin":"○","tsunami":"○","kaji":"×","naisui":"○","kazan":"×","指定避難所との重複":"○","備考":"×"}},
{"type":"Feature","geometry":{"type":"Point","coordinates":[140.1317570000,35.6487240000]},"properties":{"Name":"源小学校","Jusho":"千葉県千葉市若葉区源町541-6","kouzui":"○","gake":"○","takashio":"○","jishin":"○","tsunami":"○","kaji":"×","naisui":"○","kazan":"×","指定避難所との重複":"○","備考":"×"}},
{"type":"Feature","geometry":{"type":"Point","coordinates":[140.1576190000,35.6139520000]},"properties":{"Name":"加曽利中学校","Jusho":"千葉県千葉市若葉区加曽利町961-5","kouzui":"○","gake":"○","takashio":"○","jishin":"○","tsunami":"○","kaji":"×","naisui":"○","kazan":"×","指定避難所との重複":"○","備考":"×"}},
{"type":"Feature","geometry":{"type":"Point","coordinates":[140.2256370000,35.5875260000]},"properties":{"Name":"白井中学校","Jusho":"千葉県千葉市若葉区野呂町623","kouzui":"○","gake":"○","takashio":"○","jishin":"○","tsunami":"○","kaji":"×","naisui":"○","kazan":"×","指定避難所との重複":"○","備考":"×"}},
{"type":"Feature","geometry":{"type":"Point","coordinates":[140.2264160000,35.6176570000]},"properties":{"Name":"更科中学校","Jusho":"千葉県千葉市若葉区更科町2112","kouzui":"○","gake":"○","takashio":"○","jishin":"○","tsunami":"○","kaji":"×","naisui":"○","kazan":"×","指定避難所との重複":"○","備考":"×"}},
{"type":"Feature","geometry":{"type":"Point","coordinates":[140.1846400000,35.6215980000]},"properties":{"Name":"千城台西中学校","Jusho":"千葉県千葉市若葉区千城台西2-20-1","kouzui":"○","gake":"○","takashio":"○","jishin":"○","tsunami":"○","kaji":"×","naisui":"○","kazan":"×","指定避難所との重複":"○","備考":"×"}},
{"type":"Feature","geometry":{"type":"Point","coordinates":[140.1867140000,35.5863260000]},"properties":{"Name":"大宮中学校","Jusho":"千葉県千葉市若葉区大宮町2077","kouzui":"○","gake":"○","takashio":"○","jishin":"○","tsunami":"○","kaji":"×","naisui":"○","kazan":"×","指定避難所との重複":"○","備考":"×"}},
{"type":"Feature","geometry":{"type":"Point","coordinates":[140.1907740000,35.6186880000]},"properties":{"Name":"千城台南中学校","Jusho":"千葉県千葉市若葉区千城台南1-20-1","kouzui":"○","gake":"○","takashio":"○","jishin":"○","tsunami":"○","kaji":"×","naisui":"○","kazan":"×","指定避難所との重複":"○","備考":"×"}},
{"type":"Feature","geometry":{"type":"Point","coordinates":[140.1311900000,35.6353070000]},"properties":{"Name":"みつわ台中学校","Jusho":"千葉県千葉市若葉区みつわ台2-41-1","kouzui":"○","gake":"○","takashio":"○","jishin":"○","tsunami":"○","kaji":"×","naisui":"○","kazan":"×","指定避難所との重複":"○","備考":"×"}},
{"type":"Feature","geometry":{"type":"Point","coordinates":[140.1698460000,35.6357950000]},"properties":{"Name":"若松中学校","Jusho":"千葉県千葉市若葉区若松町2106-2","kouzui":"○","gake":"○","takashio":"○","jishin":"○","tsunami":"○","kaji":"×","naisui":"○","kazan":"×","指定避難所との重複":"○","備考":"×"}},
{"type":"Feature","geometry":{"type":"Point","coordinates":[140.1426730000,35.6530510000]},"properties":{"Name":"山王中学校","Jusho":"千葉県千葉市若葉区若松町774","kouzui":"○","gake":"○","takashio":"○","jishin":"○","tsunami":"○","kaji":"×","naisui":"○","kazan":"×","指定避難所との重複":"○","備考":"×"}},
{"type":"Feature","geometry":{"type":"Point","coordinates":[140.1534700000,35.6240210000]},"properties":{"Name":"貝塚中学校","Jusho":"千葉県千葉市若葉区貝塚町1-7-1","kouzui":"○","gake":"○","takashio":"○","jishin":"○","tsunami":"○","kaji":"×","naisui":"○","kazan":"×","指定避難所との重複":"○","備考":"×"}},
{"type":"Feature","geometry":{"type":"Point","coordinates":[140.1669780000,35.5976900000]},"properties":{"Name":"市立養護学校","Jusho":"千葉県千葉市若葉区大宮町1066-1","kouzui":"○","gake":"○","takashio":"○","jishin":"○","tsunami":"○","kaji":"×","naisui":"○","kazan":"×","指定避難所との重複":"○","備考":"×"}},
{"type":"Feature","geometry":{"type":"Point","coordinates":[140.1689000000,35.6143220000]},"properties":{"Name":"県立桜が丘特別支援学校","Jusho":"千葉県千葉市若葉区加曽利町1538","kouzui":"○","gake":"○","takashio":"○","jishin":"○","tsunami":"○","kaji":"×","naisui":"○","kazan":"×","指定避難所との重複":"○","備考":"×"}},
{"type":"Feature","geometry":{"type":"Point","coordinates":[140.1591730000,35.6440310000]},"properties":{"Name":"県立若松高等学校","Jusho":"千葉県千葉市若葉区若松町429","kouzui":"○","gake":"○","takashio":"○","jishin":"○","tsunami":"○","kaji":"×","naisui":"○","kazan":"×","指定避難所との重複":"○","備考":"×"}},
{"type":"Feature","geometry":{"type":"Point","coordinates":[140.1880930000,35.6216100000]},"properties":{"Name":"県立千城台高等学校","Jusho":"千葉県千葉市若葉区千城台西2-1-1","kouzui":"○","gake":"○","takashio":"○","jishin":"○","tsunami":"○","kaji":"×","naisui":"○","kazan":"×","指定避難所との重複":"○","備考":"×"}},
{"type":"Feature","geometry":{"type":"Point","coordinates":[140.2102180000,35.6021550000]},"properties":{"Name":"県立泉高等学校","Jusho":"千葉県千葉市若葉区高根町875-1","kouzui":"○","gake":"○","takashio":"○","jishin":"○","tsunami":"○","kaji":"×","naisui":"○","kazan":"×","指定避難所との重複":"○","備考":"×"}},
{"type":"Feature","geometry":{"type":"Point","coordinates":[140.1699970000,35.6027020000]},"properties":{"Name":"県立千葉大宮高等学校","Jusho":"千葉県千葉市若葉区大宮町2699-1","kouzui":"○","gake":"○","takashio":"○","jishin":"○","tsunami":"○","kaji":"×","naisui":"○","kazan":"×","指定避難所との重複":"○","備考":"×"}},
{"type":"Feature","geometry":{"type":"Point","coordinates":[140.1873090000,35.6223180000]},"properties":{"Name":"千城台公民館","Jusho":"千葉県千葉市若葉区千城台西2-1-1","kouzui":"○","gake":"○","takashio":"○","jishin":"○","tsunami":"○","kaji":"×","naisui":"○","kazan":"×","指定避難所との重複":"○","備考":"×"}},
{"type":"Feature","geometry":{"type":"Point","coordinates":[140.2277940000,35.6178000000]},"properties":{"Name":"更科公民館","Jusho":"千葉県千葉市若葉区更科町2254-1","kouzui":"○","gake":"○","takashio":"○","jishin":"○","tsunami":"○","kaji":"×","naisui":"○","kazan":"×","指定避難所との重複":"○","備考":"×"}},
{"type":"Feature","geometry":{"type":"Point","coordinates":[140.2302786000,35.5838979200]},"properties":{"Name":"白井公民館","Jusho":"千葉県千葉市若葉区野呂町622-10","kouzui":"○","gake":"○","takashio":"○","jishin":"○","tsunami":"○","kaji":"×","naisui":"○","kazan":"×","指定避難所との重複":"○","備考":"×"}},
{"type":"Feature","geometry":{"type":"Point","coordinates":[140.1520580000,35.6121510000]},"properties":{"Name":"加曽利公民館","Jusho":"千葉県千葉市若葉区加曽利町892-6","kouzui":"○","gake":"○","takashio":"○","jishin":"○","tsunami":"○","kaji":"×","naisui":"○","kazan":"×","指定避難所との重複":"○","備考":"×"}},
{"type":"Feature","geometry":{"type":"Point","coordinates":[140.1810290000,35.5965590000]},"properties":{"Name":"大宮公民館","Jusho":"千葉県千葉市若葉区大宮町3221-2","kouzui":"○","gake":"○","takashio":"○","jishin":"○","tsunami":"○","kaji":"×","naisui":"○","kazan":"×","指定避難所との重複":"○","備考":"×"}},
{"type":"Feature","geometry":{"type":"Point","coordinates":[140.1355060000,35.6392410000]},"properties":{"Name":"みつわ台公民館","Jusho":"千葉県千葉市若葉区みつわ台3-12-17","kouzui":"○","gake":"○","takashio":"○","jishin":"○","tsunami":"○","kaji":"×","naisui":"○","kazan":"×","指定避難所との重複":"○","備考":"×"}},
{"type":"Feature","geometry":{"type":"Point","coordinates":[140.1675470000,35.6350950000]},"properties":{"Name":"若松公民館","Jusho":"千葉県千葉市若葉区若松町2117-2","kouzui":"○","gake":"○","takashio":"○","jishin":"○","tsunami":"○","kaji":"×","naisui":"○","kazan":"×","指定避難所との重複":"○","備考":"×"}},
{"type":"Feature","geometry":{"type":"Point","coordinates":[140.1603810000,35.6227660000]},"properties":{"Name":"桜木公民館","Jusho":"千葉県千葉市若葉区桜木3-17-29","kouzui":"○","gake":"○","takashio":"○","jishin":"○","tsunami":"○","kaji":"×","naisui":"○","kazan":"×","指定避難所との重複":"○","備考":"×"}},
{"type":"Feature","geometry":{"type":"Point","coordinates":[140.1864430000,35.6219710000]},"properties":{"Name":"千城台コミュニティセンター","Jusho":"千葉県千葉市若葉区千城台西2-1-1","kouzui":"○","gake":"○","takashio":"○","jishin":"○","tsunami":"○","kaji":"×","naisui":"○","kazan":"×","指定避難所との重複":"○","備考":"×"}},
{"type":"Feature","geometry":{"type":"Point","coordinates":[140.1546660000,35.6343160000]},"properties":{"Name":"都賀コミュニティセンター","Jusho":"千葉県千葉市若葉区都賀4-20-1","kouzui":"○","gake":"○","takashio":"○","jishin":"○","tsunami":"○","kaji":"×","naisui":"○","kazan":"×","指定避難所との重複":"○","備考":"×"}},
{"type":"Feature","geometry":{"type":"Point","coordinates":[140.1337700000,35.6154330000]},"properties":{"Name":"千葉刑務所","Jusho":"千葉県千葉市若葉区貝塚町192","kouzui":"○","gake":"○","takashio":"○","jishin":"○","tsunami":"○","kaji":"×","naisui":"○","kazan":"×","指定避難所との重複":"○","備考":"×"}},
{"type":"Feature","geometry":{"type":"Point","coordinates":[140.1362600000,35.6409360000]},"properties":{"Name":"みつわ台体育館","Jusho":"千葉県千葉市若葉区みつわ台3-3-1","kouzui":"○","gake":"○","takashio":"○","jishin":"○","tsunami":"○","kaji":"×","naisui":"○","kazan":"×","指定避難所との重複":"○","備考":"×"}},
{"type":"Feature","geometry":{"type":"Point","coordinates":[140.1327200000,35.6538870000]},"properties":{"Name":"愛生運動広場","Jusho":"千葉県千葉市若葉区愛生町102-1","kouzui":"○","gake":"○","takashio":"○","jishin":"○","tsunami":"○","kaji":"×","naisui":"○","kazan":"×","指定避難所との重複":"×","備考":"×"}},
{"type":"Feature","geometry":{"type":"Point","coordinates":[140.1474440000,35.6342000000]},"properties":{"Name":"美しの森公園","Jusho":"千葉県千葉市若葉区都賀2-5","kouzui":"○","gake":"○","takashio":"○","jishin":"○","tsunami":"○","kaji":"×","naisui":"○","kazan":"×","指定避難所との重複":"×","備考":"×"}},
{"type":"Feature","geometry":{"type":"Point","coordinates":[140.1705820000,35.6292890000]},"properties":{"Name":"小倉台公園","Jusho":"千葉県千葉市若葉区小倉台4-7","kouzui":"○","gake":"○","takashio":"○","jishin":"○","tsunami":"○","kaji":"×","naisui":"○","kazan":"×","指定避難所との重複":"×","備考":"×"}},
{"type":"Feature","geometry":{"type":"Point","coordinates":[140.1966310000,35.6234140000]},"properties":{"Name":"御成公園","Jusho":"千葉県千葉市若葉区千城台東2-45","kouzui":"○","gake":"○","takashio":"○","jishin":"○","tsunami":"○","kaji":"×","naisui":"○","kazan":"×","指定避難所との重複":"×","備考":"×"}},
{"type":"Feature","geometry":{"type":"Point","coordinates":[140.2008290000,35.6362630000]},"properties":{"Name":"御成台公園","Jusho":"千葉県千葉市若葉区御成台3-1182-2","kouzui":"○","gake":"○","takashio":"○","jishin":"○","tsunami":"○","kaji":"×","naisui":"○","kazan":"×","指定避難所との重複":"×","備考":"×"}},
{"type":"Feature","geometry":{"type":"Point","coordinates":[140.1526400000,35.6208320000]},"properties":{"Name":"桜木公園","Jusho":"千葉県千葉市若葉区桜木1-423","kouzui":"○","gake":"○","takashio":"○","jishin":"○","tsunami":"○","kaji":"×","naisui":"○","kazan":"×","指定避難所との重複":"×","備考":"×"}},
{"type":"Feature","geometry":{"type":"Point","coordinates":[140.1864120000,35.6274510000]},"properties":{"Name":"城北公園","Jusho":"千葉県千葉市若葉区千城台北2-1","kouzui":"○","gake":"○","takashio":"○","jishin":"○","tsunami":"○","kaji":"×","naisui":"○","kazan":"×","指定避難所との重複":"×","備考":"×"}},
{"type":"Feature","geometry":{"type":"Point","coordinates":[140.1803980000,35.6226460000]},"properties":{"Name":"千城台西公園","Jusho":"千葉県千葉市若葉区千城台西1-15","kouzui":"○","gake":"○","takashio":"○","jishin":"○","tsunami":"○","kaji":"×","naisui":"○","kazan":"×","指定避難所との重複":"×","備考":"×"}},
{"type":"Feature","geometry":{"type":"Point","coordinates":[140.1310420000,35.6308000000]},"properties":{"Name":"みつわ台公園","Jusho":"千葉県千葉市若葉区みつわ台1-28","kouzui":"○","gake":"○","takashio":"○","jishin":"○","tsunami":"○","kaji":"×","naisui":"○","kazan":"×","指定避難所との重複":"×","備考":"×"}},
{"type":"Feature","geometry":{"type":"Point","coordinates":[140.1324800000,35.6348970000]},"properties":{"Name":"みつわ台第1公園","Jusho":"千葉県千葉市若葉区みつわ台1-18","kouzui":"○","gake":"○","takashio":"○","jishin":"○","tsunami":"○","kaji":"×","naisui":"○","kazan":"×","指定避難所との重複":"×","備考":"×"}},
{"type":"Feature","geometry":{"type":"Point","coordinates":[140.1349250000,35.6413750000]},"properties":{"Name":"みつわ台第2公園","Jusho":"千葉県千葉市若葉区みつわ台3-2","kouzui":"○","gake":"○","takashio":"○","jishin":"○","tsunami":"○","kaji":"×","naisui":"○","kazan":"×","指定避難所との重複":"×","備考":"×"}},
{"type":"Feature","geometry":{"type":"Point","coordinates":[140.2588030000,35.5959020000]},"properties":{"Name":"袖ヶ浦カンツリー倶楽部新袖コース（※建物を含まない）","Jusho":"千葉県千葉市若葉区富田町1140","kouzui":"○","gake":"○","takashio":"○","jishin":"○","tsunami":"○","kaji":"○","naisui":"○","kazan":"×","指定避難所との重複":"×","備考":"×"}},
{"type":"Feature","geometry":{"type":"Point","coordinates":[140.1491980000,35.6528330000]},"properties":{"Name":"陸上自衛隊高射学校（※建物を含まない）","Jusho":"千葉県千葉市若葉区若松町902","kouzui":"○","gake":"○","takashio":"○","jishin":"○","tsunami":"○","kaji":"○","naisui":"○","kazan":"×","指定避難所との重複":"×","備考":"×"}},
{"type":"Feature","geometry":{"type":"Point","coordinates":[140.2265740000,35.5774400000]},"properties":{"Name":"泉自然公園","Jusho":"千葉県千葉市若葉区野呂町108","kouzui":"○","gake":"○","takashio":"○","jishin":"○","tsunami":"○","kaji":"○","naisui":"○","kazan":"×","指定避難所との重複":"×","備考":"×"}},
{"type":"Feature","geometry":{"type":"Point","coordinates":[140.1647330000,35.6240590000]},"properties":{"Name":"加曽利貝塚公園","Jusho":"千葉県千葉市若葉区桜木2-81-1他","kouzui":"○","gake":"○","takashio":"○","jishin":"○","tsunami":"○","kaji":"○","naisui":"○","kazan":"×","指定避難所との重複":"×","備考":"×"}},
{"type":"Feature","geometry":{"type":"Point","coordinates":[140.1911690000,35.6165580000]},"properties":{"Name":"千城台公園一帯","Jusho":"千葉県千葉市若葉区千城台南1-21他","kouzui":"○","gake":"○","takashio":"○","jishin":"○","tsunami":"○","kaji":"○","naisui":"○","kazan":"×","指定避難所との重複":"×","備考":"×"}},
{"type":"Feature","geometry":{"type":"Point","coordinates":[140.1867140000,35.5863260000]},"properties":{"Name":"大宮中学校一帯","Jusho":"千葉県千葉市若葉区大宮町2077他","kouzui":"○","gake":"○","takashio":"○","jishin":"○","tsunami":"○","kaji":"○","naisui":"○","kazan":"×","指定避難所との重複":"×","備考":"×"}},
{"type":"Feature","geometry":{"type":"Point","coordinates":[140.1634080000,35.5418060000]},"properties":{"Name":"椎名小学校","Jusho":"千葉県千葉市緑区茂呂町582","kouzui":"○","gake":"○","takashio":"○","jishin":"○","tsunami":"○","kaji":"×","naisui":"○","kazan":"×","指定避難所との重複":"○","備考":"×"}},
{"type":"Feature","geometry":{"type":"Point","coordinates":[140.2044750000,35.5495540000]},"properties":{"Name":"誉田小学校","Jusho":"千葉県千葉市緑区誉田町1-27","kouzui":"○","gake":"○","takashio":"○","jishin":"○","tsunami":"○","kaji":"×","naisui":"○","kazan":"×","指定避難所との重複":"○","備考":"×"}},
{"type":"Feature","geometry":{"type":"Point","coordinates":[140.1800590000,35.5688460000]},"properties":{"Name":"平山小学校","Jusho":"千葉県千葉市緑区辺田町141","kouzui":"○","gake":"○","takashio":"○","jishin":"○","tsunami":"○","kaji":"×","naisui":"○","kazan":"×","指定避難所との重複":"○","備考":"×"}},
{"type":"Feature","geometry":{"type":"Point","coordinates":[140.2734110000,35.5316260000]},"properties":{"Name":"土気小学校","Jusho":"千葉県千葉市緑区土気町1634-2","kouzui":"○","gake":"○","takashio":"○","jishin":"○","tsunami":"○","kaji":"×","naisui":"○","kazan":"×","指定避難所との重複":"○","備考":"×"}},
{"type":"Feature","geometry":{"type":"Point","coordinates":[140.2182110000,35.5495330000]},"properties":{"Name":"誉田東小学校","Jusho":"千葉県千葉市緑区誉田町2-21-84","kouzui":"○","gake":"○","takashio":"○","jishin":"○","tsunami":"○","kaji":"×","naisui":"○","kazan":"×","指定避難所との重複":"○","備考":"×"}},
{"type":"Feature","geometry":{"type":"Point","coordinates":[140.2503580000,35.5310380000]},"properties":{"Name":"大木戸小学校","Jusho":"千葉県千葉市緑区大木戸町317","kouzui":"○","gake":"○","takashio":"○","jishin":"○","tsunami":"○","kaji":"×","naisui":"○","kazan":"×","指定避難所との重複":"○","備考":"×"}},
{"type":"Feature","geometry":{"type":"Point","coordinates":[140.2370310000,35.5321810000]},"properties":{"Name":"越智小学校","Jusho":"千葉県千葉市緑区越智町705-359","kouzui":"○","gake":"○","takashio":"○","jishin":"○","tsunami":"○","kaji":"×","naisui":"○","kazan":"×","指定避難所との重複":"○","備考":"×"}},
{"type":"Feature","geometry":{"type":"Point","coordinates":[140.1735900000,35.5542720000]},"properties":{"Name":"泉谷小学校","Jusho":"千葉県千葉市緑区おゆみ野中央4-3","kouzui":"○","gake":"○","takashio":"○","jishin":"○","tsunami":"○","kaji":"×","naisui":"○","kazan":"×","指定避難所との重複":"○","備考":"×"}},
{"type":"Feature","geometry":{"type":"Point","coordinates":[140.2650180000,35.5230730000]},"properties":{"Name":"土気南小学校","Jusho":"千葉県千葉市緑区あすみが丘4-16","kouzui":"○","gake":"○","takashio":"○","jishin":"○","tsunami":"○","kaji":"×","naisui":"○","kazan":"×","指定避難所との重複":"○","備考":"×"}},
{"type":"Feature","geometry":{"type":"Point","coordinates":[140.1813980000,35.5553420000]},"properties":{"Name":"小谷小学校","Jusho":"千葉県千葉市緑区おゆみ野4-45","kouzui":"○","gake":"○","takashio":"○","jishin":"○","tsunami":"○","kaji":"×","naisui":"○","kazan":"×","指定避難所との重複":"○","備考":"×"}},
{"type":"Feature","geometry":{"type":"Point","coordinates":[140.2623400000,35.5143740000]},"properties":{"Name":"大椎小学校","Jusho":"千葉県千葉市緑区あすみが丘6-38","kouzui":"○","gake":"○","takashio":"○","jishin":"○","tsunami":"○","kaji":"×","naisui":"○","kazan":"×","指定避難所との重複":"○","備考":"×"}},
{"type":"Feature","geometry":{"type":"Point","coordinates":[140.1660930000,35.5612900000]},"properties":{"Name":"有吉小学校","Jusho":"千葉県千葉市緑区おゆみ野1-53","kouzui":"○","gake":"○","takashio":"○","jishin":"○","tsunami":"○","kaji":"×","naisui":"○","kazan":"×","指定避難所との重複":"○","備考":"×"}},
{"type":"Feature","geometry":{"type":"Point","coordinates":[140.1724340000,35.5476260000]},"properties":{"Name":"金沢小学校","Jusho":"千葉県千葉市緑区おゆみ野南5-31","kouzui":"○","gake":"○","takashio":"○","jishin":"○","tsunami":"○","kaji":"×","naisui":"○","kazan":"×","指定避難所との重複":"○","備考":"×"}},
{"type":"Feature","geometry":{"type":"Point","coordinates":[140.2633270000,35.5196790000]},"properties":{"Name":"あすみが丘小学校","Jusho":"千葉県千葉市緑区あすみが丘6-2","kouzui":"○","gake":"○","takashio":"○","jishin":"○","tsunami":"○","kaji":"×","naisui":"○","kazan":"×","指定避難所との重複":"○","備考":"×"}},
{"type":"Feature","geometry":{"type":"Point","coordinates":[140.1634640000,35.5569290000]},"properties":{"Name":"扇田小学校","Jusho":"千葉県千葉市緑区おゆみ野中央1-26","kouzui":"○","gake":"○","takashio":"○","jishin":"○","tsunami":"○","kaji":"×","naisui":"○","kazan":"×","指定避難所との重複":"○","備考":"×"}},
{"type":"Feature","geometry":{"type":"Point","coordinates":[140.1687430000,35.5450570000]},"properties":{"Name":"おゆみ野南小学校","Jusho":"千葉県千葉市緑区おゆみ野南4-26","kouzui":"○","gake":"○","takashio":"○","jishin":"○","tsunami":"○","kaji":"×","naisui":"○","kazan":"×","指定避難所との重複":"○","備考":"×"}},
{"type":"Feature","geometry":{"type":"Point","coordinates":[140.2029820000,35.5523810000]},"properties":{"Name":"誉田中学校","Jusho":"千葉県千葉市緑区誉田町1-138","kouzui":"○","gake":"○","takashio":"○","jishin":"○","tsunami":"○","kaji":"○","naisui":"○","kazan":"×","指定避難所との重複":"○","備考":"×"}},
{"type":"Feature","geometry":{"type":"Point","coordinates":[140.2725330000,35.5413500000]},"properties":{"Name":"土気中学校","Jusho":"千葉県千葉市緑区土気町1400","kouzui":"○","gake":"○","takashio":"○","jishin":"○","tsunami":"○","kaji":"○","naisui":"○","kazan":"×","指定避難所との重複":"○","備考":"×"}},
{"type":"Feature","geometry":{"type":"Point","coordinates":[140.2412870000,35.5335540000]},"properties":{"Name":"越智中学校","Jusho":"千葉県千葉市緑区越智町651","kouzui":"○","gake":"○","takashio":"○","jishin":"○","tsunami":"○","kaji":"×","naisui":"○","kazan":"×","指定避難所との重複":"○","備考":"×"}},
{"type":"Feature","geometry":{"type":"Point","coordinates":[140.1721450000,35.5549160000]},"properties":{"Name":"泉谷中学校","Jusho":"千葉県千葉市緑区おゆみ野中央4-2","kouzui":"○","gake":"○","takashio":"○","jishin":"○","tsunami":"○","kaji":"×","naisui":"○","kazan":"×","指定避難所との重複":"○","備考":"×"}},
{"type":"Feature","geometry":{"type":"Point","coordinates":[140.2610050000,35.5248390000]},"properties":{"Name":"土気南中学校","Jusho":"千葉県千葉市緑区あすみが丘4-38","kouzui":"○","gake":"○","takashio":"○","jishin":"○","tsunami":"○","kaji":"×","naisui":"○","kazan":"×","指定避難所との重複":"○","備考":"×"}},
{"type":"Feature","geometry":{"type":"Point","coordinates":[140.1704860000,35.5605550000]},"properties":{"Name":"有吉中学校","Jusho":"千葉県千葉市緑区おゆみ野2-41","kouzui":"○","gake":"○","takashio":"○","jishin":"○","tsunami":"○","kaji":"×","naisui":"○","kazan":"×","指定避難所との重複":"○","備考":"×"}},
{"type":"Feature","geometry":{"type":"Point","coordinates":[140.2704160000,35.5171180000]},"properties":{"Name":"大椎中学校","Jusho":"千葉県千葉市緑区あすみが丘8-26","kouzui":"○","gake":"○","takashio":"○","jishin":"○","tsunami":"○","kaji":"×","naisui":"○","kazan":"×","指定避難所との重複":"○","備考":"×"}},
{"type":"Feature","geometry":{"type":"Point","coordinates":[140.1769800000,35.5451190000]},"properties":{"Name":"おゆみ野南中学校","Jusho":"千葉県千葉市緑区おゆみ野南5-25","kouzui":"○","gake":"○","takashio":"○","jishin":"○","tsunami":"○","kaji":"×","naisui":"○","kazan":"×","指定避難所との重複":"○","備考":"×"}},
{"type":"Feature","geometry":{"type":"Point","coordinates":[140.2742370000,35.5235680000]},"properties":{"Name":"県立土気高等学校","Jusho":"千葉県千葉市緑区あすみが丘東2-24-1","kouzui":"○","gake":"○","takashio":"○","jishin":"○","tsunami":"○","kaji":"×","naisui":"○","kazan":"×","指定避難所との重複":"○","備考":"×"}},
{"type":"Feature","geometry":{"type":"Point","coordinates":[140.2032330000,35.5498690000]},"properties":{"Name":"誉田公民館","Jusho":"千葉県千葉市緑区誉田町1-789-49","kouzui":"○","gake":"○","takashio":"○","jishin":"○","tsunami":"○","kaji":"×","naisui":"○","kazan":"×","指定避難所との重複":"○","備考":"×"}},
{"type":"Feature","geometry":{"type":"Point","coordinates":[140.1638510000,35.5436630000]},"properties":{"Name":"椎名公民館","Jusho":"千葉県千葉市緑区富岡町290-1","kouzui":"○","gake":"○","takashio":"○","jishin":"○","tsunami":"○","kaji":"×","naisui":"○","kazan":"×","指定避難所との重複":"○","備考":"×"}},
{"type":"Feature","geometry":{"type":"Point","coordinates":[140.2736470000,35.5307290000]},"properties":{"Name":"土気公民館","Jusho":"千葉県千葉市緑区土気町1631-7","kouzui":"○","gake":"○","takashio":"○","jishin":"○","tsunami":"○","kaji":"×","naisui":"○","kazan":"×","指定避難所との重複":"○","備考":"×"}},
{"type":"Feature","geometry":{"type":"Point","coordinates":[140.2363830000,35.5348830000]},"properties":{"Name":"越智公民館","Jusho":"千葉県千葉市緑区越智町822-7","kouzui":"○","gake":"○","takashio":"○","jishin":"○","tsunami":"○","kaji":"×","naisui":"○","kazan":"×","指定避難所との重複":"○","備考":"×"}},
{"type":"Feature","geometry":{"type":"Point","coordinates":[140.1641810000,35.5560870000]},"properties":{"Name":"おゆみ野公民館","Jusho":"千葉県千葉市緑区おゆみ野中央2-7-6","kouzui":"○","gake":"○","takashio":"○","jishin":"○","tsunami":"○","kaji":"×","naisui":"○","kazan":"×","指定避難所との重複":"○","備考":"×"}},
{"type":"Feature","geometry":{"type":"Point","coordinates":[140.1757030000,35.5599520000]},"properties":{"Name":"鎌取コミュニティセンター","Jusho":"千葉県千葉市緑区おゆみ野3-15-2","kouzui":"○","gake":"○","takashio":"○","jishin":"○","tsunami":"○","kaji":"×","naisui":"○","kazan":"×","指定避難所との重複":"○","備考":"×"}},
{"type":"Feature","geometry":{"type":"Point","coordinates":[140.2732400000,35.5307580000]},"properties":{"Name":"土気市民センター","Jusho":"千葉県千葉市緑区土気町1634","kouzui":"○","gake":"○","takashio":"○","jishin":"○","tsunami":"○","kaji":"×","naisui":"○","kazan":"×","指定避難所との重複":"○","備考":"×"}},
{"type":"Feature","geometry":{"type":"Point","coordinates":[140.1462950000,35.5491870000]},"properties":{"Name":"古市場体育館・古市場公園野球場","Jusho":"千葉県千葉市緑区古市場町474-277","kouzui":"○","gake":"○","takashio":"○","jishin":"○","tsunami":"○","kaji":"×","naisui":"○","kazan":"×","指定避難所との重複":"○","備考":"×"}},
{"type":"Feature","geometry":{"type":"Point","coordinates":[140.2652040000,35.5212790000]},"properties":{"Name":"土気あすみが丘プラザ","Jusho":"千葉県千葉市緑区あすみが丘７-2-4","kouzui":"○","gake":"○","takashio":"○","jishin":"○","tsunami":"○","kaji":"×","naisui":"○","kazan":"×","指定避難所との重複":"○","備考":"×"}},
{"type":"Feature","geometry":{"type":"Point","coordinates":[140.2635920000,35.5211930000]},"properties":{"Name":"あすみが丘ふれあいの広場公園","Jusho":"千葉県千葉市緑区あすみが丘6-1","kouzui":"○","gake":"○","takashio":"○","jishin":"○","tsunami":"○","kaji":"×","naisui":"○","kazan":"×","指定避難所との重複":"×","備考":"×"}},
{"type":"Feature","geometry":{"type":"Point","coordinates":[140.2642930000,35.5118960000]},"properties":{"Name":"あすみが丘やすらぎの広場公園","Jusho":"千葉県千葉市緑区あすみが丘9-13","kouzui":"○","gake":"○","takashio":"○","jishin":"○","tsunami":"○","kaji":"×","naisui":"○","kazan":"×","指定避難所との重複":"×","備考":"×"}},
{"type":"Feature","geometry":{"type":"Point","coordinates":[140.2318460000,35.5124550000]},"properties":{"Name":"大野台中央公園","Jusho":"千葉県千葉市緑区大野台1-6-2","kouzui":"○","gake":"○","takashio":"○","jishin":"○","tsunami":"○","kaji":"×","naisui":"○","kazan":"×","指定避難所との重複":"×","備考":"×"}},
{"type":"Feature","geometry":{"type":"Point","coordinates":[140.2373100000,35.5345830000]},"properties":{"Name":"越智中央公園","Jusho":"千葉県千葉市緑区越智町810-7","kouzui":"○","gake":"○","takashio":"○","jishin":"○","tsunami":"○","kaji":"×","naisui":"○","kazan":"×","指定避難所との重複":"×","備考":"×"}},
{"type":"Feature","geometry":{"type":"Point","coordinates":[140.1725610000,35.5603570000]},"properties":{"Name":"おゆみ野さくら公園","Jusho":"千葉県千葉市緑区おゆみ野2-42","kouzui":"○","gake":"○","takashio":"○","jishin":"○","tsunami":"○","kaji":"×","naisui":"○","kazan":"×","指定避難所との重複":"×","備考":"×"}},
{"type":"Feature","geometry":{"type":"Point","coordinates":[140.1995300000,35.5485090000]},"properties":{"Name":"誉田南公園","Jusho":"千葉県千葉市緑区誉田町1-780","kouzui":"○","gake":"○","takashio":"○","jishin":"○","tsunami":"○","kaji":"×","naisui":"○","kazan":"×","指定避難所との重複":"×","備考":"×"}},
{"type":"Feature","geometry":{"type":"Point","coordinates":[140.2803040000,35.5183250000]},"properties":{"Name":"昭和の森","Jusho":"千葉県千葉市緑区土気町22","kouzui":"○","gake":"○","takashio":"○","jishin":"○","tsunami":"○","kaji":"○","naisui":"○","kazan":"×","指定避難所との重複":"×","備考":"×"}},
{"type":"Feature","geometry":{"type":"Point","coordinates":[140.1882510000,35.5671780000]},"properties":{"Name":"袖ヶ浦カンツリー倶楽部袖ヶ浦コース（※建物を含まない）","Jusho":"千葉県千葉市緑区辺田町567","kouzui":"○","gake":"○","takashio":"○","jishin":"○","tsunami":"○","kaji":"○","naisui":"○","kazan":"×","指定避難所との重複":"×","備考":"×"}},
{"type":"Feature","geometry":{"type":"Point","coordinates":[140.1793670000,35.5359630000]},"properties":{"Name":"本千葉カントリークラブ（※建物を含まない）","Jusho":"千葉県千葉市緑区大金沢町311","kouzui":"○","gake":"○","takashio":"○","jishin":"○","tsunami":"○","kaji":"○","naisui":"○","kazan":"×","指定避難所との重複":"×","備考":"×"}},
{"type":"Feature","geometry":{"type":"Point","coordinates":[140.2564430000,35.5532480000]},"properties":{"Name":"平川カントリークラブ（※建物を含まない）","Jusho":"千葉県千葉市緑区平川町405","kouzui":"○","gake":"○","takashio":"○","jishin":"○","tsunami":"○","kaji":"○","naisui":"○","kazan":"×","指定避難所との重複":"×","備考":"×"}},
{"type":"Feature","geometry":{"type":"Point","coordinates":[140.2699180000,35.5028850000]},"properties":{"Name":"東急セブンハンドレッドクラブ（※建物を含まない）","Jusho":"千葉県千葉市緑区小山町359-6","kouzui":"○","gake":"○","takashio":"○","jishin":"○","tsunami":"○","kaji":"○","naisui":"○","kazan":"×","指定避難所との重複":"×","備考":"×"}},
{"type":"Feature","geometry":{"type":"Point","coordinates":[140.2610050000,35.5248390000]},"properties":{"Name":"土気南中学校一帯","Jusho":"千葉県千葉市緑区あすみが丘4-38他","kouzui":"○","gake":"○","takashio":"○","jishin":"○","tsunami":"○","kaji":"○","naisui":"○","kazan":"×","指定避難所との重複":"×","備考":"×"}},
{"type":"Feature","geometry":{"type":"Point","coordinates":[140.1735900000,35.5542720000]},"properties":{"Name":"泉谷小学校一帯","Jusho":"千葉県千葉市緑区おゆみ野中央4-3他","kouzui":"○","gake":"○","takashio":"○","jishin":"○","tsunami":"○","kaji":"○","naisui":"○","kazan":"×","指定避難所との重複":"×","備考":"×"}},
{"type":"Feature","geometry":{"type":"Point","coordinates":[140.0753390000,35.6368810000]},"properties":{"Name":"稲毛第二小学校","Jusho":"千葉県千葉市美浜区稲毛海岸5-7-1","kouzui":"○","gake":"○","takashio":"○","jishin":"○","tsunami":"○","kaji":"×","naisui":"○","kazan":"×","指定避難所との重複":"○","備考":"×"}},
{"type":"Feature","geometry":{"type":"Point","coordinates":[140.0380360000,35.6648650000]},"properties":{"Name":"幕張西小学校","Jusho":"千葉県千葉市美浜区幕張西2-8-1","kouzui":"○","gake":"○","takashio":"○","jishin":"○","tsunami":"○","kaji":"×","naisui":"○","kazan":"×","指定避難所との重複":"○","備考":"×"}},
{"type":"Feature","geometry":{"type":"Point","coordinates":[140.0990090000,35.6112700000]},"properties":{"Name":"幸町第三小学校","Jusho":"千葉県千葉市美浜区幸町1-10-1","kouzui":"○","gake":"○","takashio":"○","jishin":"○","tsunami":"○","kaji":"×","naisui":"○","kazan":"×","指定避難所との重複":"○","備考":"×"}},
{"type":"Feature","geometry":{"type":"Point","coordinates":[140.0741680000,35.6267260000]},"properties":{"Name":"高洲第三小学校","Jusho":"千葉県千葉市美浜区高洲3-3-11","kouzui":"○","gake":"○","takashio":"○","jishin":"○","tsunami":"○","kaji":"×","naisui":"○","kazan":"×","指定避難所との重複":"○","備考":"×"}},
{"type":"Feature","geometry":{"type":"Point","coordinates":[140.0779520000,35.6307630000]},"properties":{"Name":"高洲第四小学校","Jusho":"千葉県千葉市美浜区高洲1-15-1","kouzui":"○","gake":"○","takashio":"○","jishin":"○","tsunami":"○","kaji":"×","naisui":"○","kazan":"×","指定避難所との重複":"○","備考":"×"}},
{"type":"Feature","geometry":{"type":"Point","coordinates":[140.0691480000,35.6326190000]},"properties":{"Name":"真砂第五小学校","Jusho":"千葉県千葉市美浜区真砂1-12-15","kouzui":"○","gake":"○","takashio":"○","jishin":"○","tsunami":"○","kaji":"×","naisui":"○","kazan":"×","指定避難所との重複":"○","備考":"×"}},
{"type":"Feature","geometry":{"type":"Point","coordinates":[140.0758940000,35.6198700000]},"properties":{"Name":"高浜第一小学校","Jusho":"千葉県千葉市美浜区高浜1-4-1","kouzui":"○","gake":"○","takashio":"○","jishin":"○","tsunami":"○","kaji":"×","naisui":"○","kazan":"×","指定避難所との重複":"○","備考":"×"}},
{"type":"Feature","geometry":{"type":"Point","coordinates":[140.0843430000,35.6299480000]},"properties":{"Name":"稲浜小学校","Jusho":"千葉県千葉市美浜区稲毛海岸2-3-2","kouzui":"○","gake":"○","takashio":"○","jishin":"○","tsunami":"○","kaji":"×","naisui":"○","kazan":"×","指定避難所との重複":"○","備考":"×"}},
{"type":"Feature","geometry":{"type":"Point","coordinates":[140.0641580000,35.6300950000]},"properties":{"Name":"磯辺第三小学校","Jusho":"千葉県千葉市美浜区磯辺1-25-1","kouzui":"○","gake":"○","takashio":"○","jishin":"○","tsunami":"○","kaji":"×","naisui":"○","kazan":"×","指定避難所との重複":"○","備考":"×"}},
{"type":"Feature","geometry":{"type":"Point","coordinates":[140.0472930000,35.6420220000]},"properties":{"Name":"打瀬小学校","Jusho":"千葉県千葉市美浜区打瀬1-3-1","kouzui":"○","gake":"○","takashio":"×","jishin":"○","tsunami":"○","kaji":"×","naisui":"○","kazan":"×","指定避難所との重複":"○","備考":"×"}},
{"type":"Feature","geometry":{"type":"Point","coordinates":[140.0416220000,35.6405040000]},"properties":{"Name":"海浜打瀬小学校","Jusho":"千葉県千葉市美浜区打瀬3-3-1","kouzui":"○","gake":"○","takashio":"×","jishin":"○","tsunami":"○","kaji":"×","naisui":"○","kazan":"×","指定避難所との重複":"○","備考":"×"}},
{"type":"Feature","geometry":{"type":"Point","coordinates":[140.0447194000,35.6380514000]},"properties":{"Name":"美浜打瀬小学校","Jusho":"千葉県千葉市美浜区打瀬2-18-1","kouzui":"○","gake":"○","takashio":"×","jishin":"○","tsunami":"○","kaji":"×","naisui":"○","kazan":"×","指定避難所との重複":"○","備考":"×"}},
{"type":"Feature","geometry":{"type":"Point","coordinates":[140.0798080000,35.6250530000]},"properties":{"Name":"高洲小学校","Jusho":"千葉県千葉市美浜区高洲2-2-20","kouzui":"○","gake":"○","takashio":"○","jishin":"○","tsunami":"○","kaji":"×","naisui":"○","kazan":"×","指定避難所との重複":"○","備考":"×"}},
{"type":"Feature","geometry":{"type":"Point","coordinates":[140.0669100000,35.6378020000]},"properties":{"Name":"真砂東小学校","Jusho":"千葉県千葉市美浜区真砂2-13-1","kouzui":"○","gake":"○","takashio":"○","jishin":"○","tsunami":"○","kaji":"×","naisui":"○","kazan":"×","指定避難所との重複":"○","備考":"×"}},
{"type":"Feature","geometry":{"type":"Point","coordinates":[140.0590970000,35.6426330000]},"properties":{"Name":"真砂西小学校","Jusho":"千葉県千葉市美浜区真砂4-5-1","kouzui":"○","gake":"○","takashio":"○","jishin":"○","tsunami":"○","kaji":"×","naisui":"○","kazan":"×","指定避難所との重複":"○","備考":"×"}},
{"type":"Feature","geometry":{"type":"Point","coordinates":[140.0696540000,35.6234640000]},"properties":{"Name":"高浜海浜小学校","Jusho":"千葉県千葉市美浜区高浜4-8-2","kouzui":"○","gake":"○","takashio":"○","jishin":"○","tsunami":"○","kaji":"×","naisui":"○","kazan":"×","指定避難所との重複":"○","備考":"×"}},
{"type":"Feature","geometry":{"type":"Point","coordinates":[140.0581010000,35.6317640000]},"properties":{"Name":"磯辺小学校","Jusho":"千葉県千葉市美浜区磯辺4-16-1","kouzui":"○","gake":"○","takashio":"○","jishin":"○","tsunami":"○","kaji":"×","naisui":"○","kazan":"×","指定避難所との重複":"○","備考":"×"}},
{"type":"Feature","geometry":{"type":"Point","coordinates":[140.0905360000,35.6216540000]},"properties":{"Name":"幸町小学校","Jusho":"千葉県千葉市美浜区幸町2-12-12","kouzui":"○","gake":"○","takashio":"○","jishin":"○","tsunami":"○","kaji":"×","naisui":"○","kazan":"×","指定避難所との重複":"○","備考":"×"}},
{"type":"Feature","geometry":{"type":"Point","coordinates":[140.0883050000,35.6242680000]},"properties":{"Name":"旧幸町第一小学校（跡施設）","Jusho":"千葉県千葉市美浜区幸町2-17-4","kouzui":"○","gake":"○","takashio":"○","jishin":"○","tsunami":"○","kaji":"×","naisui":"○","kazan":"×","指定避難所との重複":"○","備考":"×"}},
{"type":"Feature","geometry":{"type":"Point","coordinates":[140.0950160000,35.6179290000]},"properties":{"Name":"旧幸町第二小学校（跡施設）","Jusho":"千葉県千葉市美浜区幸町2-9-4","kouzui":"○","gake":"○","takashio":"○","jishin":"○","tsunami":"○","kaji":"×","naisui":"○","kazan":"×","指定避難所との重複":"○","備考":"×"}},
{"type":"Feature","geometry":{"type":"Point","coordinates":[140.0900260000,35.6211810000]},"properties":{"Name":"幸町第一中学校","Jusho":"千葉県千葉市美浜区幸町2-12-7","kouzui":"○","gake":"○","takashio":"○","jishin":"○","tsunami":"○","kaji":"×","naisui":"○","kazan":"×","指定避難所との重複":"○","備考":"×"}},
{"type":"Feature","geometry":{"type":"Point","coordinates":[140.0774410000,35.6232450000]},"properties":{"Name":"高洲第一中学校","Jusho":"千葉県千葉市美浜区高洲2-3-18","kouzui":"○","gake":"○","takashio":"○","jishin":"○","tsunami":"○","kaji":"×","naisui":"○","kazan":"×","指定避難所との重複":"○","備考":"×"}},
{"type":"Feature","geometry":{"type":"Point","coordinates":[140.0373480000,35.6635690000]},"properties":{"Name":"幕張西中学校","Jusho":"千葉県千葉市美浜区幕張西2-9-1","kouzui":"○","gake":"○","takashio":"○","jishin":"○","tsunami":"○","kaji":"×","naisui":"○","kazan":"×","指定避難所との重複":"○","備考":"×"}},
{"type":"Feature","geometry":{"type":"Point","coordinates":[140.0717470000,35.6325620000]},"properties":{"Name":"高洲第二中学校","Jusho":"千葉県千葉市美浜区高洲4-4-3","kouzui":"○","gake":"○","takashio":"○","jishin":"○","tsunami":"○","kaji":"×","naisui":"○","kazan":"×","指定避難所との重複":"○","備考":"×"}},
{"type":"Feature","geometry":{"type":"Point","coordinates":[140.0708870000,35.6237680000]},"properties":{"Name":"高浜中学校","Jusho":"千葉県千葉市美浜区高浜4-8-1","kouzui":"○","gake":"○","takashio":"○","jishin":"○","tsunami":"○","kaji":"×","naisui":"○","kazan":"×","指定避難所との重複":"○","備考":"×"}},
{"type":"Feature","geometry":{"type":"Point","coordinates":[140.0980570000,35.6125790000]},"properties":{"Name":"幸町第二中学校","Jusho":"千葉県千葉市美浜区幸町1-10-2","kouzui":"○","gake":"○","takashio":"○","jishin":"○","tsunami":"○","kaji":"×","naisui":"○","kazan":"×","指定避難所との重複":"○","備考":"×"}},
{"type":"Feature","geometry":{"type":"Point","coordinates":[140.0818050000,35.6327810000]},"properties":{"Name":"稲浜中学校","Jusho":"千葉県千葉市美浜区稲毛海岸2-3-3","kouzui":"○","gake":"○","takashio":"○","jishin":"○","tsunami":"○","kaji":"×","naisui":"○","kazan":"×","指定避難所との重複":"○","備考":"×"}},
{"type":"Feature","geometry":{"type":"Point","coordinates":[140.0431528000,35.6366406000]},"properties":{"Name":"打瀬中学校","Jusho":"千葉県千葉市美浜区打瀬3-12-1","kouzui":"○","gake":"○","takashio":"○","jishin":"○","tsunami":"○","kaji":"×","naisui":"○","kazan":"×","指定避難所との重複":"○","備考":"×"}},
{"type":"Feature","geometry":{"type":"Point","coordinates":[140.0631060000,35.6452220000]},"properties":{"Name":"真砂中学校","Jusho":"千葉県千葉市美浜区真砂5-18-2","kouzui":"○","gake":"○","takashio":"○","jishin":"○","tsunami":"○","kaji":"×","naisui":"○","kazan":"×","指定避難所との重複":"○","備考":"×"}},
{"type":"Feature","geometry":{"type":"Point","coordinates":[140.0539630000,35.6325140000]},"properties":{"Name":"磯辺中学校","Jusho":"千葉県千葉市美浜区磯辺7-1-1","kouzui":"○","gake":"○","takashio":"○","jishin":"○","tsunami":"○","kaji":"×","naisui":"○","kazan":"×","指定避難所との重複":"○","備考":"×"}},
{"type":"Feature","geometry":{"type":"Point","coordinates":[140.0615990000,35.6440170000]},"properties":{"Name":"市立高等特別支援学校","Jusho":"千葉県千葉市美浜区真砂5-18-1","kouzui":"○","gake":"○","takashio":"○","jishin":"○","tsunami":"○","kaji":"×","naisui":"○","kazan":"×","指定避難所との重複":"○","備考":"×"}},
{"type":"Feature","geometry":{"type":"Point","coordinates":[140.0685250000,35.6204010000]},"properties":{"Name":"市立稲毛高等学校・同附属中学校","Jusho":"千葉県千葉市美浜区高浜3-1-1","kouzui":"○","gake":"○","takashio":"○","jishin":"○","tsunami":"○","kaji":"×","naisui":"○","kazan":"×","指定避難所との重複":"○","備考":"×"}},
{"type":"Feature","geometry":{"type":"Point","coordinates":[140.0533440000,35.6274130000]},"properties":{"Name":"県立千葉西高等学校","Jusho":"千葉県千葉市美浜区磯辺3-30-3","kouzui":"○","gake":"○","takashio":"○","jishin":"○","tsunami":"○","kaji":"×","naisui":"○","kazan":"×","指定避難所との重複":"○","備考":"×"}},
{"type":"Feature","geometry":{"type":"Point","coordinates":[140.0583440000,35.6260300000]},"properties":{"Name":"県立磯辺高等学校","Jusho":"千葉県千葉市美浜区磯辺2-7-1","kouzui":"○","gake":"○","takashio":"○","jishin":"○","tsunami":"○","kaji":"×","naisui":"○","kazan":"×","指定避難所との重複":"○","備考":"×"}},
{"type":"Feature","geometry":{"type":"Point","coordinates":[140.0568730000,35.6401090000]},"properties":{"Name":"県立検見川高等学校","Jusho":"千葉県千葉市美浜区真砂4-17-1","kouzui":"○","gake":"○","takashio":"○","jishin":"○","tsunami":"○","kaji":"×","naisui":"○","kazan":"×","指定避難所との重複":"○","備考":"×"}},
{"type":"Feature","geometry":{"type":"Point","coordinates":[140.0528090000,35.6478310000]},"properties":{"Name":"県立幕張総合高等学校","Jusho":"千葉県千葉市美浜区若葉3-1-6","kouzui":"○","gake":"○","takashio":"○","jishin":"○","tsunami":"○","kaji":"×","naisui":"○","kazan":"×","指定避難所との重複":"○","備考":"×"}},
{"type":"Feature","geometry":{"type":"Point","coordinates":[140.0540390000,35.6514760000]},"properties":{"Name":"県立幕張総合高等学校（看護科校舎）","Jusho":"千葉県千葉市美浜区若葉2-10-2","kouzui":"○","gake":"○","takashio":"×","jishin":"○","tsunami":"○","kaji":"×","naisui":"○","kazan":"×","指定避難所との重複":"○","備考":"×"}},
{"type":"Feature","geometry":{"type":"Point","coordinates":[140.0794660000,35.6319890000]},"properties":{"Name":"稲浜公民館","Jusho":"千葉県千葉市美浜区稲毛海岸3-4-1","kouzui":"○","gake":"○","takashio":"×","jishin":"○","tsunami":"○","kaji":"×","naisui":"○","kazan":"×","指定避難所との重複":"○","備考":"×"}},
{"type":"Feature","geometry":{"type":"Point","coordinates":[140.0363610000,35.6655740000]},"properties":{"Name":"幕張西公民館","Jusho":"千葉県千葉市美浜区幕張西2-6-2","kouzui":"○","gake":"○","takashio":"×","jishin":"○","tsunami":"○","kaji":"×","naisui":"○","kazan":"×","指定避難所との重複":"○","備考":"×"}},
{"type":"Feature","geometry":{"type":"Point","coordinates":[140.0617790000,35.6281980000]},"properties":{"Name":"磯辺公民館","Jusho":"千葉県千葉市美浜区磯辺1-48-1","kouzui":"○","gake":"○","takashio":"×","jishin":"○","tsunami":"○","kaji":"×","naisui":"○","kazan":"×","指定避難所との重複":"○","備考":"×"}},
{"type":"Feature","geometry":{"type":"Point","coordinates":[140.0923580000,35.6206760000]},"properties":{"Name":"幸町公民館","Jusho":"千葉県千葉市美浜区幸町2-12-14","kouzui":"○","gake":"○","takashio":"×","jishin":"○","tsunami":"○","kaji":"×","naisui":"○","kazan":"×","指定避難所との重複":"○","備考":"×"}},
{"type":"Feature","geometry":{"type":"Point","coordinates":[140.0733780000,35.6202070000]},"properties":{"Name":"高浜公民館","Jusho":"千葉県千葉市美浜区高浜1-8-3","kouzui":"○","gake":"○","takashio":"×","jishin":"○","tsunami":"○","kaji":"×","naisui":"○","kazan":"×","指定避難所との重複":"○","備考":"×"}},
{"type":"Feature","geometry":{"type":"Point","coordinates":[140.0466880000,35.6396900000]},"properties":{"Name":"打瀬公民館","Jusho":"千葉県千葉市美浜区打瀬2-13","kouzui":"○","gake":"○","takashio":"×","jishin":"○","tsunami":"○","kaji":"×","naisui":"○","kazan":"×","指定避難所との重複":"○","備考":"×"}},
{"type":"Feature","geometry":{"type":"Point","coordinates":[140.0710440000,35.6269920000]},"properties":{"Name":"高洲コミュニティセンター","Jusho":"千葉県千葉市美浜区高洲3-12-1","kouzui":"○","gake":"○","takashio":"○","jishin":"○","tsunami":"○","kaji":"×","naisui":"○","kazan":"×","指定避難所との重複":"○","備考":"×"}},
{"type":"Feature","geometry":{"type":"Point","coordinates":[140.0691870000,35.6404000000]},"properties":{"Name":"真砂コミュニティセンター","Jusho":"千葉県千葉市美浜区真砂2-3-1","kouzui":"○","gake":"○","takashio":"○","jishin":"○","tsunami":"○","kaji":"×","naisui":"○","kazan":"×","指定避難所との重複":"○","備考":"×"}},
{"type":"Feature","geometry":{"type":"Point","coordinates":[140.0752610000,35.6335530000]},"properties":{"Name":"高洲スポーツセンター体育館","Jusho":"千葉県千葉市美浜区高洲4-2-1","kouzui":"○","gake":"○","takashio":"×","jishin":"○","tsunami":"○","kaji":"×","naisui":"○","kazan":"×","指定避難所との重複":"○","備考":"×"}},
{"type":"Feature","geometry":{"type":"Point","coordinates":[140.0624420000,35.6275470000]},"properties":{"Name":"磯辺スポーツセンター","Jusho":"千葉県千葉市美浜区磯辺1-50-1","kouzui":"○","gake":"○","takashio":"×","jishin":"○","tsunami":"○","kaji":"×","naisui":"○","kazan":"×","指定避難所との重複":"○","備考":"×"}},
{"type":"Feature","geometry":{"type":"Point","coordinates":[140.0502620000,35.6489230000]},"properties":{"Name":"幕張勤労市民プラザ","Jusho":"千葉県千葉市美浜区若葉3-1-8","kouzui":"○","gake":"○","takashio":"×","jishin":"○","tsunami":"○","kaji":"×","naisui":"○","kazan":"×","指定避難所との重複":"○","備考":"×"}},
{"type":"Feature","geometry":{"type":"Point","coordinates":[140.0642570000,35.6295760000]},"properties":{"Name":"磯辺公園","Jusho":"千葉県千葉市美浜区磯辺1-26","kouzui":"○","gake":"○","takashio":"×","jishin":"○","tsunami":"○","kaji":"×","naisui":"○","kazan":"×","指定避難所との重複":"×","備考":"×"}},
{"type":"Feature","geometry":{"type":"Point","coordinates":[140.0548180000,35.6368850000]},"properties":{"Name":"北磯辺公園","Jusho":"千葉県千葉市美浜区磯辺6-4","kouzui":"○","gake":"○","takashio":"×","jishin":"○","tsunami":"○","kaji":"×","naisui":"○","kazan":"×","指定避難所との重複":"×","備考":"×"}},
{"type":"Feature","geometry":{"type":"Point","coordinates":[140.0637240000,35.6260270000]},"properties":{"Name":"北高浜公園","Jusho":"千葉県千葉市美浜区高浜5-19","kouzui":"○","gake":"○","takashio":"×","jishin":"○","tsunami":"○","kaji":"×","naisui":"○","kazan":"×","指定避難所との重複":"×","備考":"×"}},
{"type":"Feature","geometry":{"type":"Point","coordinates":[140.0758710000,35.6276770000]},"properties":{"Name":"高洲公園","Jusho":"千葉県千葉市美浜区高洲3-2","kouzui":"○","gake":"○","takashio":"×","jishin":"○","tsunami":"○","kaji":"×","naisui":"○","kazan":"×","指定避難所との重複":"×","備考":"×"}},
{"type":"Feature","geometry":{"type":"Point","coordinates":[140.0737050000,35.6196880000]},"properties":{"Name":"高浜公園","Jusho":"千葉県千葉市美浜区高浜1-8","kouzui":"○","gake":"○","takashio":"×","jishin":"○","tsunami":"○","kaji":"×","naisui":"○","kazan":"×","指定避難所との重複":"×","備考":"×"}},
{"type":"Feature","geometry":{"type":"Point","coordinates":[140.0562240000,35.6300530000]},"properties":{"Name":"中磯辺公園","Jusho":"千葉県千葉市美浜区磯辺4-27","kouzui":"○","gake":"○","takashio":"×","jishin":"○","tsunami":"○","kaji":"×","naisui":"○","kazan":"×","指定避難所との重複":"×","備考":"×"}},
{"type":"Feature","geometry":{"type":"Point","coordinates":[140.0683020000,35.6221470000]},"properties":{"Name":"中高浜公園","Jusho":"千葉県千葉市美浜区高浜4-6","kouzui":"○","gake":"○","takashio":"×","jishin":"○","tsunami":"○","kaji":"×","naisui":"○","kazan":"×","指定避難所との重複":"×","備考":"×"}},
{"type":"Feature","geometry":{"type":"Point","coordinates":[140.0318790000,35.6574510000]},"properties":{"Name":"浜田公園","Jusho":"千葉県千葉市美浜区浜田2-126","kouzui":"○","gake":"○","takashio":"×","jishin":"○","tsunami":"○","kaji":"×","naisui":"○","kazan":"×","指定避難所との重複":"×","備考":"×"}},
{"type":"Feature","geometry":{"type":"Point","coordinates":[140.0401140000,35.6629240000]},"properties":{"Name":"幕張西第2公園","Jusho":"千葉県千葉市美浜区幕張西3-4","kouzui":"○","gake":"○","takashio":"×","jishin":"○","tsunami":"○","kaji":"×","naisui":"○","kazan":"×","指定避難所との重複":"×","備考":"×"}},
{"type":"Feature","geometry":{"type":"Point","coordinates":[140.0320260000,35.6628990000]},"properties":{"Name":"幕張西第3公園","Jusho":"千葉県千葉市美浜区幕張西6-2-1","kouzui":"○","gake":"○","takashio":"×","jishin":"○","tsunami":"○","kaji":"×","naisui":"○","kazan":"×","指定避難所との重複":"×","備考":"×"}},
{"type":"Feature","geometry":{"type":"Point","coordinates":[140.0690790000,35.6341920000]},"properties":{"Name":"真砂公園","Jusho":"千葉県千葉市美浜区真砂1-11","kouzui":"○","gake":"○","takashio":"×","jishin":"○","tsunami":"○","kaji":"×","naisui":"○","kazan":"×","指定避難所との重複":"×","備考":"×"}},
{"type":"Feature","geometry":{"type":"Point","coordinates":[140.0646750000,35.6196460000]},"properties":{"Name":"南高浜公園","Jusho":"千葉県千葉市美浜区高浜3-2","kouzui":"○","gake":"○","takashio":"×","jishin":"○","tsunami":"○","kaji":"×","naisui":"○","kazan":"×","指定避難所との重複":"×","備考":"×"}},
{"type":"Feature","geometry":{"type":"Point","coordinates":[140.0993300000,35.6166980000]},"properties":{"Name":"綜警千葉ビル","Jusho":"千葉県千葉市美浜区幸町1-26-5","kouzui":"×","gake":"×","takashio":"×","jishin":"×","tsunami":"○","kaji":"×","naisui":"×","kazan":"×","指定避難所との重複":"×","備考":"×"}},
{"type":"Feature","geometry":{"type":"Point","coordinates":[140.0726690000,35.6094760000]},